[
  {
    "ContentID": "62f29518b6cc42e3b6c3c7d94635bbb1",
    "Street": "Dieselstraße 11",
    "Zipcode": "12057",
    "City": "Berlin",
    "Phone": "+030 (666) 33 7 90",
    "Email": "asb-neukoelln@caritas-berlin.de",
    "Latitude": 52.47561,
    "Longitude": 13.46685,
    "Title": "Allgemeine Soziale Beratung Neukölln"
  },
  {
    "ContentID": "6ddd78660e084bd1aab910bd47103e82",
    "Street": "Schiede 73",
    "Zipcode": "65549",
    "City": "Limburg",
    "Phone": "+49 (6431) 200540",
    "Email": "alb@caritas-limburg.de",
    "Latitude": 50.3850845,
    "Longitude": 8.0635871,
    "Title": "Allgemeine Lebens- und Sozialberatung"
  },
  {
    "ContentID": "eda4adb2a418454bbe0c7fbf7725ee1b",
    "Street": "Affentorplatz 1",
    "Zipcode": "60594",
    "City": "Frankfurt",
    "Phone": "+49 (69) 25493122",
    "Email": "alb@caritas-frankfurt.de",
    "Latitude": 50.1046909,
    "Longitude": 8.6901082,
    "Title": "Allgemeine Lebensberatung, für Frauen in Frankfurt"
  },
  {
    "ContentID": "82ac643687af430a86072decd998c097",
    "Street": "Oldenburger Straße 47",
    "Zipcode": "10551",
    "City": "Berlin-Mitte",
    "Phone": "+49 (30) 666337170",
    "Email": "asb-mitte@caritas-berlin.de",
    "Latitude": 52.5274165,
    "Longitude": 13.3353155,
    "Title": "Allgemeine Sozial Beratung Berlin-Mitte"
  },
  {
    "ContentID": "6ae993636d334131b77d967e83524aa0",
    "Street": "Dr.-Godron-Str. 3",
    "Zipcode": "94405",
    "City": "Landau",
    "Phone": "+49 (9951) 9851-50",
    "Email": "sozialberatung@caritas-landau.de",
    "Website": "https://www.caritas-landau.de",
    "Latitude": 48.66864,
    "Longitude": 12.69374,
    "Title": "Allgemeine Sozialberatung - Kreis-Caritasverband Landau a. d. Isar e. V."
  },
  {
    "ContentID": "b7ea41aa95464304b6251036e774c97f",
    "Street": "Ludwig-Penzkofer-Str. 3",
    "Zipcode": "94078",
    "City": "Freyung",
    "Phone": "+49 (8551) 58522",
    "Email": "sozialberatung@caritas-freyung.de",
    "Latitude": 48.80383,
    "Longitude": 13.54217,
    "Title": "Allgemeine Sozialberatung d. KCV Freyung-Grafenau"
  },
  {
    "ContentID": "9022f25fab184ce698d668c0a9f69fdb",
    "Street": "Fritz-Tillmann-Str. 8",
    "Zipcode": "53113",
    "City": "Bonn",
    "Phone": "+49 (228) 108280",
    "Email": "sozialberatung@caritas-bonn.de",
    "Website": "https://www.caritas-bonn.de",
    "Latitude": 50.73068,
    "Longitude": 7.10374,
    "Title": "Allgemeine Sozialberatung des Caritasverbandes für die Stadt Bonn e.V."
  },
  {
    "ContentID": "daae6754de9f486a9ff4b21edad07f47",
    "Street": "Obere Donaulände 8",
    "Zipcode": "94032",
    "City": "Passau",
    "Phone": "+49 (851) 5018732",
    "Email": "info@caritas-pa-la.de",
    "Latitude": 48.5751743,
    "Longitude": 13.454027,
    "Title": "Allgemeine Sozialberatung des Caritasverbandes für Stadt und Landkreis Passau e. V."
  },
  {
    "ContentID": "8a457948a00b4358bcc664758a13e0cc",
    "Street": "Neuöttingerstr. 62a",
    "Zipcode": "84503",
    "City": "Altötting",
    "Phone": "+49 (8671) 96730",
    "Email": "info@caritas-altoetting.de",
    "Latitude": 48.23102,
    "Longitude": 12.68066,
    "Title": "Allgemeine Sozialberatung des KCV Altötting"
  },
  {
    "ContentID": "9119cb8ef47c4b3da890f3d10499cf9d",
    "Street": "Spitalplatz 4",
    "Zipcode": "84347",
    "City": "Pfarrkirchen",
    "Phone": "+49 (8561) 960715",
    "Email": "geschaeftsstelle@caritas-rottal-inn.de",
    "Latitude": 48.43112,
    "Longitude": 12.94062,
    "Title": "Allgemeine Sozialberatung des KCV Rottal-Inn e.V."
  },
  {
    "ContentID": "3e74ad4c1158469b914353284d549300",
    "Street": "Pfleggasse 8",
    "Zipcode": "94209",
    "City": "Regen",
    "Phone": "+49 (9921) 94620",
    "Email": "info@caritas-regen.de",
    "Latitude": 48.9708604,
    "Longitude": 13.1258325,
    "Title": "Allgemeine Sozialberatung mit Schuldnerberatung des KCV Regen"
  },
  {
    "ContentID": "8f10d3a0eb8d4b8dab7e7a7e16927001",
    "Street": "Unter den Hecken 44",
    "Zipcode": "41539",
    "City": "Dormagen",
    "Phone": "+49 (2133) 2500104",
    "Email": "annette.droste@caritas-neuss.de",
    "Latitude": 51.0941815,
    "Longitude": 6.8428076,
    "Title": "Allgemeine Sozialberatung, Dormagen"
  },
  {
    "ContentID": "f343e63b34154711b52495973616d62e",
    "Street": "Immigratherstr. 40",
    "Zipcode": "40764",
    "City": "Langenfeld",
    "Phone": "+49 (2173) 394760",
    "Email": "sarah.katzmann@skf-langenfeld.de; judith.koesters@skf-langenfeld.de",
    "Website": "https://www.skf-langenfeld.de",
    "Latitude": 51.1226076,
    "Longitude": 6.9523711,
    "Title": "Allgemeine Sozialberatung, Langenfeld"
  },
  {
    "ContentID": "f1613c2bfa0d47ac8e363edff638dd82",
    "Street": "Bahnhofstraße 16",
    "Zipcode": "17489",
    "City": "Greifswald",
    "Phone": "+49 (3834) 79830",
    "Email": "allg.soz.ber.greifswald@caritas-vorpommern.de",
    "Latitude": 54.09303,
    "Longitude": 13.37521,
    "Title": "Allgemeine Soziale Beratung"
  },
  {
    "ContentID": "d56a97a699df4c3791a1af82995aec7c",
    "Street": "Friedländer Straße 43",
    "Zipcode": "17389",
    "City": "Anklam",
    "Phone": "+49 (3971) 20350",
    "Email": ";allg.soz.ber.anklam@caritas-vorpommern.de",
    "Latitude": 53.8541451,
    "Longitude": 13.6930123,
    "Title": "Allgemeine Soziale Beratung"
  },
  {
    "ContentID": "dea9bd5d4a434108b03ef8042527bd50",
    "Street": "Geyerswörthstr. 2",
    "Zipcode": "96047",
    "City": "Bamberg",
    "Phone": "+49 (951) 2995721",
    "Email": "luise.loechner@caritas-bamberg.de,klaus.will@caritas-bamberg.de",
    "Latitude": 49.890629,
    "Longitude": 10.8881218,
    "Title": "Allgemeine Soziale Beratung Bamberg Stadt"
  },
  {
    "ContentID": "9182d69133434e34884f7e1ec19434ee",
    "Street": "Birkenfelderstraße 15",
    "Zipcode": "91301",
    "City": "Forchheim",
    "Phone": "+49 (9191) 707224",
    "Email": "ursula.schneider@caritas-forchheim.de",
    "Latitude": 49.7205341,
    "Longitude": 11.0648893,
    "Title": "Allgemeine Soziale Beratung Forchheim"
  },
  {
    "ContentID": "5fa7c3764ba94752b95b1818df2bb43e",
    "Street": "Leipziger Str. 39",
    "Zipcode": "15232",
    "City": "Frankfurt (Oder)",
    "Phone": "+49 (0335) 5654140",
    "Email": "asb-frankfurt-oder@caritas-brandenburg.de",
    "Latitude": 52.33387,
    "Longitude": 14.53418,
    "Title": "Allgemeine Soziale Beratung Frankfurt (Oder)"
  },
  {
    "ContentID": "e8f64e6de0c541f583fda6d297ffd608",
    "Street": "c/o Caritas Seniorenzentrum Stella Maris, Waldbühnenweg 6",
    "Zipcode": "17424",
    "City": "Heringsdorf",
    "Phone": "+49 (38378) 336225",
    "Email": "allg.soz.ber.heringsdorf@caritas-vorpommern.de",
    "Latitude": 53.9521369,
    "Longitude": 14.1642046,
    "Title": "Allgemeine Soziale Beratung Heringsdorf"
  },
  {
    "ContentID": "1aece7daaf894548898379112359d3cd",
    "Street": "Zimmerstraße 7",
    "Zipcode": "14471",
    "City": "Potsdam",
    "Phone": "+49 (331) 710298",
    "Email": "potsdam-ib@caritas-brandenburg.de",
    "Latitude": 52.39685,
    "Longitude": 13.04816,
    "Title": "Allgemeine Soziale Beratung Potsdam"
  },
  {
    "ContentID": "bba4c63204ad4d27a82fba5624f8d2bd",
    "Street": "Friedrich-Engels-Ring 31",
    "Zipcode": "15562",
    "City": "Rüdersdorf",
    "Phone": "+49 (33638) 129637",
    "Email": "asb-ruedersdorf@caritas-brandenburg.de",
    "Latitude": 52.465671,
    "Longitude": 13.7915194,
    "Title": "Allgemeine Soziale Beratung Rüdersdorf"
  },
  {
    "ContentID": "978db430ed63426d95f955119e1693e8",
    "Street": "August-Bebel-Str. 12",
    "Zipcode": "15344",
    "City": "Strausberg",
    "Phone": "+49 (3341) 390072",
    "Email": "asb-strausberg@caritas-brandenburg.de",
    "Latitude": 52.57454,
    "Longitude": 13.87927,
    "Title": "Allgemeine Soziale Beratung Strausberg"
  },
  {
    "ContentID": "d0654b814b364022b9673f518f1ec002",
    "Street": "Pfalzburger Straße 18",
    "Zipcode": "10719",
    "City": "Berlin-Wilmersdorf",
    "Phone": "+49 (30) 66633963",
    "Email": "ausb.charlottenburg-wilmersdorf@caritas-berlin.de,A.Dohr@caritas-berlin.de",
    "Website": "https://https://www.caritas-berlin.de/beratungundhilfe/berlin/allgemeinesozialeberatung/beratung/",
    "Latitude": 52.49476,
    "Longitude": 13.32143,
    "Title": "Allgemeine Soziale Beratung Wilmersdorf"
  },
  {
    "ContentID": "4c9ed0e61f8346a3b12cad4fc3ad169c",
    "Street": "Blumenstr. 9",
    "Zipcode": "42853",
    "City": "Remscheid",
    "Email": "info@caritas-remscheid.de",
    "Latitude": 51.1791828,
    "Longitude": 7.1930821,
    "Title": "Allgemeine Soziale Beratung, Caritasverband Remscheid e.V."
  },
  {
    "ContentID": "0de4a811d3254844999088ba3c54c69e",
    "Street": "Altdorferstr.45",
    "Zipcode": "91207",
    "City": "Lauf an der Pegnitz",
    "Phone": "+49 (9123) 962680",
    "Email": "info@caritas-nuernberger-land.de,franziska.grashey@caritas-nuernberger-land.de,grazyna.jahn@caritas-nuernberger-land.de,silke.eckert@caritas-nuernberger-land.de,christian.ziervogel@caritas-nuernberger-land.de",
    "Latitude": 49.5073989,
    "Longitude": 11.2834162,
    "Title": "Allgemeine Soziale Beratung, Lauf"
  },
  {
    "ContentID": "4d34d2e33e7249a4a569401e34b5d4a2",
    "Street": "Dänenstraße 19",
    "Zipcode": "10439",
    "City": "Pankow",
    "Phone": "+49 (30) 4457430",
    "Email": "asb-pankow@caritas-berlin.de",
    "Latitude": 52.5517268,
    "Longitude": 13.4123013,
    "Title": "Allgemeine Soziale Beratung/ ARM-Projekt"
  },
  {
    "ContentID": "468bab19247942fdaf9ab90a43f24ef3",
    "Street": "Mozartstraße 2",
    "Zipcode": "91052",
    "City": "Erlangen",
    "Phone": "+49 (9131) 885616",
    "Email": "stark@caritas-erlangen.de,gawehn@caritas-erlangen.de,giering@caritas-erlangen.de,zepter@caritas-erlangen.de,burkert@caritas-erlangen.de,grunow@caritas-erlangen.de",
    "Latitude": 49.5890363,
    "Longitude": 11.0118679,
    "Title": "Allgemeine Soziale Beratungsstelle Erlangen"
  },
  {
    "ContentID": "b239d445c2be49e8bd242b41f0065272",
    "Street": "Pfalzburger Str. 18, 10719 Berlin",
    "Zipcode": "10719",
    "City": "Berlin-Wilmersdorf",
    "Phone": "+49 (30) 66633963",
    "Email": "ausb.charlottenburg-wilmersdorf@caritas-berlin.de,a.dohr@caritas-berlin.de,S.Mehnert@caritas-berlin.de",
    "Website": "https://www.caritas-berlin.de",
    "Latitude": 52.4946841,
    "Longitude": 13.3218058,
    "Title": "Allgemeine Unabhängige Sozialberatung Charlottenburg-Wilmersdorf"
  },
  {
    "ContentID": "89ae710b5e124fa196ba21cd5c9509d3",
    "Street": "Heidmühlenstraße 17",
    "Zipcode": "17033",
    "City": "Neubrandenburg",
    "Phone": "(0395) 5814570",
    "Email": "kilian.schneider@caritas-im-norden.de",
    "Latitude": 53.5538414,
    "Longitude": 13.2745304,
    "Title": "Beratungszentrum"
  },
  {
    "ContentID": "644ae541ed404f1eb4a2c0382d4513d8",
    "Street": "Hannes-Meyer-Platz 27",
    "Zipcode": "18147",
    "City": "Rostock",
    "Phone": "(0381) 6009110",
    "Email": "ulrich.kakowski@caritas-im-norden.de",
    "Latitude": 54.1044592,
    "Longitude": 12.1678051,
    "Title": "Beratungszentrum Dierkow"
  },
  {
    "ContentID": "dfc487d1faba4dfcb5bcf09459b0af96",
    "Street": "Hauptstraße 42",
    "Zipcode": "91154",
    "City": "Roth",
    "Phone": "+49 (9171) 84080",
    "Email": "kreisstelle@caritas-roth.de",
    "Latitude": 49.24786,
    "Longitude": 11.09164,
    "Title": "Caritas - Kreisstelle Roth, Allgemeine Sozialberatung"
  },
  {
    "ContentID": "36ecfe50116748fdbf7fd06976d1c7a1",
    "Street": "Kolpingstraße 43",
    "Zipcode": "88400",
    "City": "Biberach",
    "Phone": "+49 (7351) 5005120",
    "Email": "slb@caritas-biberach.de",
    "Website": "https://www.caritas-biberach.de",
    "Latitude": 48.0941413,
    "Longitude": 9.7893199,
    "Title": "Caritas Biberach, Zentrum Biberach -Sozial u. Lebensberatung-"
  },
  {
    "ContentID": "e1746d0407ff44b9bdac160c36bab33a",
    "Street": "Blauwstraße 25",
    "Zipcode": "88348",
    "City": "Saulgau",
    "Phone": "+49 (7581) 4955",
    "Email": "caritaszentrum-badsaulgau@caritas-biberach.de",
    "Latitude": 48.0173236,
    "Longitude": 9.5048874,
    "Title": "Caritas Biberach, Zentrum Saulgau -Sozial u. Lebensberatung"
  },
  {
    "ContentID": "483b0fe99d144ebd97fcee9ef28870c1",
    "Street": "Robert-Koch-Straße 52",
    "Zipcode": "88339",
    "City": "Bad Waldsee",
    "Phone": "+49 (7524) 4011680",
    "Email": "slb-bw@caritas-bodensee-oberschwaben.de",
    "Latitude": 47.92518,
    "Longitude": 9.75886,
    "Title": "Caritas Bodensee-Oberschwaben, Sozial- und Lebensberatung"
  },
  {
    "ContentID": "d770353a5d314e19ab1494d31586d188",
    "Street": "Katharinenstraße 16",
    "Zipcode": "88045",
    "City": "Friedrichshafen",
    "Phone": "+49 (7541) 30000",
    "Email": "slb-fn@caritas-bodensee-oberschwaben.de",
    "Latitude": 47.65511,
    "Longitude": 9.47829,
    "Title": "Caritas Bodensee-Oberschwaben, Zentrum Friedrichshafen, Sozial- und Lebensberatung"
  },
  {
    "ContentID": "ea0bf67862a4413fbdf9edc0550e0aa8",
    "Street": "Bischof-Sproll-Straße 9",
    "Zipcode": "88299",
    "City": "Leutkirch",
    "Phone": "+49 (7561) 906619",
    "Email": "slb-ltk@bodensee-oberschwaben.de",
    "Latitude": 47.81982,
    "Longitude": 10.02148,
    "Title": "Caritas Bodensee-Oberschwaben, Zentrum Leutkirch, Sozial- und Lebensberatung"
  },
  {
    "ContentID": "c78208799f534ce39d355c5f8b3e728b",
    "Street": "Seestraße 44",
    "Zipcode": "88214",
    "City": "Ravensburg",
    "Phone": "+49 (751) 362560",
    "Email": "slb-rv@caritas-bodensee-oberschwaben.de",
    "Latitude": 47.7757874,
    "Longitude": 9.6103586,
    "Title": "Caritas Bodensee-Oberschwaben, Zentrum Ravensburg, Sozial- und Lebensberatung"
  },
  {
    "ContentID": "bc1d58d4c39c49a6b2114f14877c78fc",
    "Street": "Ziegelstraße 14",
    "Zipcode": "73033",
    "City": "Göppingen",
    "Phone": "+49 (7161) 6585813",
    "Email": "stoevhase@caritas-fils-neckar-alb.de",
    "Latitude": 48.7062502,
    "Longitude": 9.6553985,
    "Title": "Caritas Fils-Neckar-Alb, Allgemeine Sozial- und, Lebensberatung"
  },
  {
    "ContentID": "62a5bcee01d54ae9b6a0dd2a8995dfc5",
    "Street": "Kaiserstraße 27",
    "Zipcode": "72764",
    "City": "Reutlingen",
    "Phone": "+49 (7121) 16560",
    "Email": "rist@caritas-fils-neckar-alb.de",
    "Latitude": 48.49515,
    "Longitude": 9.21372,
    "Title": "Caritas Fils-Neckar-Alb, Orte des Zuhörens - Solidarisches Handeln"
  },
  {
    "ContentID": "a5cb3558bca6477bb267b81c72f6d149",
    "Street": "Schillerstraße 13",
    "Zipcode": "74564",
    "City": "Crailsheim",
    "Phone": "+49 (7951) 94310",
    "Email": "cz-crailsheim@caritas-heilbronn-hohenlohe.de",
    "Latitude": 49.139597,
    "Longitude": 10.0736835,
    "Title": "Caritas Heilbronn Hohenlohe, Zentrum Crailsheim"
  },
  {
    "ContentID": "3fa065cf34ca4698aae2de5a796b124b",
    "Street": "Bahnhofplatz 3",
    "Zipcode": "97980",
    "City": "Bad Mergentheim",
    "Phone": "+49 (7931) 6362",
    "Email": "rein.u@caritas-heilbronn-hohenlohe.de",
    "Latitude": 49.49333,
    "Longitude": 9.77112,
    "Title": "Caritas Heilbronn-Hohenlohe, Caritas-Zentrum Bad Mergentheim"
  },
  {
    "ContentID": "893bfb56f3e7436a8fcf96817853b1a3",
    "Street": "Bahnhofstraße 13",
    "Zipcode": "74072",
    "City": "Heilbronn",
    "Phone": "+49 (7131) 89809200",
    "Email": "cz-heilbronn@caritas-heilbronn-hohenlohe.de",
    "Latitude": 49.1425723,
    "Longitude": 9.2116398,
    "Title": "Caritas Heilbronn-Hohenlohe, Zentrum Heilbronn"
  },
  {
    "ContentID": "6531d066dae04ad2811b7b45bcbe5a10",
    "Street": "Kirchplatz 12",
    "Zipcode": "74653",
    "City": "Künzelsau",
    "Phone": "+49 (7940) 93530",
    "Email": "cz-kuenzelsau@caritas-heilbronn-hohenlohe.de",
    "Latitude": 49.2799878,
    "Longitude": 9.6895523,
    "Title": "Caritas Heilbronn-Hohenlohe, Zentrum Künzelsau"
  },
  {
    "ContentID": "fceb3303127b48d49308f61f9e782686",
    "Street": "Am Cappelrain 6",
    "Zipcode": "74613",
    "City": "Öhringen",
    "Phone": "+49 (7941) 2074141",
    "Email": "cz-oehringen@caritas-heilbronn-hohenlohe.de",
    "Latitude": 49.1973481,
    "Longitude": 9.5077839,
    "Title": "Caritas Heilbronn-Hohenlohe, Zentrum Öhringen"
  },
  {
    "ContentID": "3938934488f24310bd0532cca12115bc",
    "Street": "Lange Straße 55",
    "Zipcode": "74523",
    "City": "Schwäbisch Hall",
    "Phone": "+49 (791) 970200",
    "Email": "cz-schwaebisch-hall@caritas-heilbronn-hohenlohe.de",
    "Latitude": 49.10971,
    "Longitude": 9.73262,
    "Title": "Caritas Heilbronn-Hohenlohe, Zentrum Schwäbisch Hall"
  },
  {
    "ContentID": "ea9d17ddc50c44ba8907ad5e6865b074",
    "Street": "Alexanderstraße 45",
    "Zipcode": "99817",
    "City": "Eisenach",
    "Phone": "+49 (3691) 204890",
    "Email": "ifland.a@caritas-bistum-erfurt.de",
    "Latitude": 50.97713,
    "Longitude": 10.3246301,
    "Title": "Caritas in Eisenach"
  },
  {
    "ContentID": "777cb566e41442c59d3f84acb9834ff1",
    "Street": "Regierungsstraße 55",
    "Zipcode": "99084",
    "City": "Erfurt",
    "Phone": "+49 (361) 5553320",
    "Email": "traubel.c@caritas-bistum-erfurt.de",
    "Latitude": 50.9737936,
    "Longitude": 11.0247742,
    "Title": "Caritas in Erfurt"
  },
  {
    "ContentID": "fc084701c67f4ca3ac3ef78ff3190192",
    "Street": "Moßlerstr. 17",
    "Zipcode": "99867",
    "City": "Gotha",
    "Phone": "+49 (3621) 404550",
    "Email": "weise.s@caritas-bistum-erfurt.de",
    "Latitude": 50.9524488,
    "Longitude": 10.7046498,
    "Title": "Caritas in Gotha"
  },
  {
    "ContentID": "da27c4b5b6aa4c728a42c002fedaed8f",
    "Street": "Bahnhofplatz 3",
    "Zipcode": "37308",
    "City": "Heiligenstadt",
    "Phone": "+49 (3606) 509732",
    "Email": "nacke.c@caritas-bistum-erfurt.de",
    "Latitude": 51.3766262,
    "Longitude": 10.1246233,
    "Title": "Caritas in Heiligenstadt"
  },
  {
    "ContentID": "78c37d7868504fdbb2d9e22a90c7decb",
    "Street": "Wagnergasse 29",
    "Zipcode": "07743",
    "City": "Jena",
    "Phone": "+49 (3641) 449257",
    "Email": "nicoll.g@caritas-bistum-erfurt.de",
    "Latitude": 50.9306529,
    "Longitude": 11.5809551,
    "Title": "Caritas in Jena"
  },
  {
    "ContentID": "cfedc86364784c9bbd5a75a8c1bbc2e8",
    "Street": "Bonifatiusweg 2",
    "Zipcode": "37327",
    "City": "Leinefelde",
    "Phone": "+49 (3605) 504436",
    "Email": "hoeppner.h@caritas-bistum-erfurt.de",
    "Latitude": 51.3780722,
    "Longitude": 10.3181497,
    "Title": "Caritas in Leinefelde"
  },
  {
    "ContentID": "bd2924dd35d542508ccd62c274cb774b",
    "Street": "Anton-Ulrich-Straße 56",
    "Zipcode": "98617",
    "City": "Meiningen",
    "Phone": "+49 (3693) 44220",
    "Email": "guenther.k@caritas-bistum-erfurt.de",
    "Latitude": 50.56411,
    "Longitude": 10.4143,
    "Title": "Caritas in Meiningen"
  },
  {
    "ContentID": "a006d3a343994c9cb8e7a4166d7dbc88",
    "Street": "Kleine Waidstraße 3",
    "Zipcode": "99974",
    "City": "Mühlhausen",
    "Phone": "+49 (3601) 83280",
    "Email": "montag.w@caritas-bistu-erfurt.de",
    "Latitude": 51.2098908,
    "Longitude": 10.46881,
    "Title": "Caritas in Mühlhausen"
  },
  {
    "ContentID": "8d87b2e6260a4328a150fd3dbf01108b",
    "Street": "Domstraße 6",
    "Zipcode": "99734",
    "City": "Nordhausen",
    "Phone": "+49 (3631) 467152",
    "Email": "klodt.n@caritas-bistum-erfurt.de",
    "Latitude": 51.50392,
    "Longitude": 10.79087,
    "Title": "Caritas in Nordhausen"
  },
  {
    "ContentID": "d8ace01b89384a72b52a55e4cd2c4fd6",
    "Street": "Darrtorstraße 11",
    "Zipcode": "07318",
    "City": "Saalfeld",
    "Phone": "+49 (3671) 358214",
    "Email": "tippelt.d@caritas-bistum-erfurt.de",
    "Latitude": 50.64926,
    "Longitude": 11.36127,
    "Title": "Caritas in Saalfeld"
  },
  {
    "ContentID": "32ca567751124861ad51bfe68780cfdd",
    "Street": "Hohe Röder 1",
    "Zipcode": "98527",
    "City": "Suhl",
    "Phone": "+49 (3681) 711811",
    "Email": "wittek.a@caritas-bistum-erfurt.de",
    "Latitude": 50.6114,
    "Longitude": 10.69555,
    "Title": "Caritas in Suhl"
  },
  {
    "ContentID": "710bee6358794993a0bf7fd0153e7ff2",
    "Street": "Thomas-Müntzer-Straße 18",
    "Zipcode": "99423",
    "City": "Weimar",
    "Phone": "+49 (3643) 202149",
    "Email": "osburg.b@caritas-bistum-erfurt.de",
    "Latitude": 50.97521,
    "Longitude": 11.32055,
    "Title": "Caritas in Weimar"
  },
  {
    "ContentID": "5aa6d870f53140a59ca70b0c92793704",
    "Street": "Ziegelstraße 11",
    "Zipcode": "74321",
    "City": "Bietigheim-Bissingen",
    "Phone": "+49 (7142) 91350",
    "Email": "schlebach@caritas-ludwigsburg-waiblingen-enz.de",
    "Latitude": 48.9604328,
    "Longitude": 9.1288865,
    "Title": "Caritas Ludwigsburg-Waiblingen-Enz, Integrierte Hilfen für Familien"
  },
  {
    "ContentID": "8f83ae3e6201417b82253addca72b44d",
    "Street": "Albertstraße 8",
    "Zipcode": "71522",
    "City": "Backnang",
    "Phone": "+49 (7191) 9115613",
    "Email": "eichhorn-wenz@caritas-ludwigsburg-waiblingen-enz.de",
    "Latitude": 48.9451,
    "Longitude": 9.42929,
    "Title": "Caritas Ludwigsburg-Waiblingen-Enz, Zentrum Backnang"
  },
  {
    "ContentID": "46914e5da4fc4040b5a49839fd8520f1",
    "Street": "Eberhardstraße 29",
    "Zipcode": "71634",
    "City": "Ludwigsburg",
    "Phone": "+49 (741) 9750514",
    "Email": "tolksdorf@caritas-ludwigsburg-waiblingen-enz.de",
    "Latitude": 48.8983358,
    "Longitude": 9.1926718,
    "Title": "Caritas Ludwigsburg-Waiblingen-Enz, Zentrum Ludwigsburg"
  },
  {
    "ContentID": "3bea50f870f74e46abefa66199c0535f",
    "Street": "Zeppelinstraße 7",
    "Zipcode": "75417",
    "City": "Mühlacker",
    "Phone": "+49 (7041) 5953",
    "Email": "muthsam-polimeni@caritas-ludwigsburg-waiblingen.de",
    "Latitude": 48.94999,
    "Longitude": 8.8387,
    "Title": "Caritas Ludwigsburg-Waiblingen-Enz, Zentrum Mühlacker"
  },
  {
    "ContentID": "1ae711af55e14c1d8407a82f73bc91a0",
    "Street": "Talstraße 12",
    "Zipcode": "71332",
    "City": "Waiblingen",
    "Phone": "+49 (7151) 172414",
    "Email": "sangermano@caritas-ludwigsburg-waiblingen-enz.de",
    "Latitude": 48.8350598,
    "Longitude": 9.3096389,
    "Title": "Caritas Ludwigsburg-Waiblingen-Enz, Zentrum Waiblingen"
  },
  {
    "ContentID": "dacf1e6fe6c34105bd140df2c25ad60f",
    "Street": "Augustastraße 7-9",
    "Zipcode": "47441",
    "City": "Moers",
    "Phone": "+49 (2841) 901015",
    "Email": "sozialberatung@caritas-moers-xanten.de",
    "Website": "https://www.caritas-moers-xanten.de",
    "Latitude": 51.4494345,
    "Longitude": 6.6344687,
    "Title": "Caritas Moers-Xanten e.V."
  },
  {
    "ContentID": "c44df7bb8d4740ae9ced06fce741eaf1",
    "Street": "Stadtfischergasse 3",
    "Zipcode": "73479",
    "City": "Ellwangen",
    "Phone": "+49 (7961) 569782",
    "Email": "beck@caritas-ost-wuerttemberg.de",
    "Latitude": 48.960158,
    "Longitude": 10.1322032,
    "Title": "Caritas Ost-Württemberg, Außenstelle Ellwangen"
  },
  {
    "ContentID": "46c232384f224d68b4868ccc394088ed",
    "Street": "Weidenfelder Straße 12",
    "Zipcode": "73430",
    "City": "Aalen",
    "Phone": "+49 (7361) 59044",
    "Email": "heusel.p@caritas-ost-wuerttemberg.de",
    "Latitude": 48.84099,
    "Longitude": 10.09235,
    "Title": "Caritas Ost-Württemberg, Zentrum Aalen"
  },
  {
    "ContentID": "307c4ca2dcc94a66b2b5e10a262b793b",
    "Street": "Kurt-Bittel-Straße 8",
    "Zipcode": "89518",
    "City": "Heidenheim",
    "Phone": "+49 (7321) 359011",
    "Email": "geiger@caritas-ost-wurttemberg.de",
    "Latitude": 48.6808164,
    "Longitude": 10.1540143,
    "Title": "Caritas Ost-Württemberg, Zentrum Heidenheim"
  },
  {
    "ContentID": "cf31b3d2c4ee4f34801c428db7c4c88f",
    "Street": "Franziskanergasse 3",
    "Zipcode": "73525",
    "City": "Schwäbisch Gmünd",
    "Phone": "+49 (7171) 1042032",
    "Email": "kuschmann@caritas-ost-wuerttemberg.de",
    "Latitude": 48.8005,
    "Longitude": 9.79918,
    "Title": "Caritas Ost-Württemberg, Zentrum Schwäbisch Gmünd"
  },
  {
    "ContentID": "93fed437298b4692b582e79539af8d17",
    "Street": "Mettinger Str. 123",
    "Zipcode": "73728",
    "City": "Esslingen",
    "Phone": "+49 (711) 39695424",
    "Email": "ruetten@caritas-fils-neckar-alb.de",
    "Latitude": 48.7422278,
    "Longitude": 9.2909845,
    "Title": "Caritas Region Fils-Neckar-Alb, Orte des Zuhörens - Solidarisches Handeln"
  },
  {
    "ContentID": "5e91770f4d3b440dbdd82cf28cac06d6",
    "Street": "An der Hoffischerei 08",
    "Zipcode": "06217",
    "City": "Merseburg",
    "Phone": "+49 (3461) 333900",
    "Email": "grit.vrieze@caritas-halle.de",
    "Website": "https://www.caritasverband-halle.de",
    "Latitude": 51.3589,
    "Longitude": 11.99511,
    "Title": "Caritas Regionalverband Halle e.V. - Bereich Saalekreis"
  },
  {
    "ContentID": "0d1fedda3d7c467aa102996277302a29",
    "Street": "Bergstraße 14",
    "Zipcode": "78532",
    "City": "Tuttlingen",
    "Phone": "+49 (7461) 9697171",
    "Email": "sorg@caritas-schwarzwald-alb-donau.de",
    "Latitude": 47.98064,
    "Longitude": 8.81726,
    "Title": "Caritas Schwarzwald-Alb-Donau, Sozial- und Lebensberatung"
  },
  {
    "ContentID": "4243956dfca2472092b00489cc6ebb25",
    "Street": "Alter Markt 1",
    "Zipcode": "72336",
    "City": "Balingen",
    "Phone": "+49 (7433) 968816",
    "Email": "mestrovic@caritas-schwarzwald-alb.donau.de",
    "Latitude": 48.2752119,
    "Longitude": 8.8518072,
    "Title": "Caritas Schwarzwald-Alb-Donau, Zentrum Balingen"
  },
  {
    "ContentID": "77742205b2ae4bc28e2e2e92e651b7b7",
    "Street": "Königstraße 47",
    "Zipcode": "78626",
    "City": "Rottweil",
    "Phone": "+49 (741) 246135",
    "Email": "schmidt.b@caritas-schwarzwald-alb-donau.de",
    "Latitude": 48.1652577,
    "Longitude": 8.628453,
    "Title": "Caritas Schwarzwald-Alb-Donau, Zentrum Rottweil"
  },
  {
    "ContentID": "1f96a771e940486faf08de42dbca92a7",
    "Street": "Hans-Klemm-Straße 1",
    "Zipcode": "71034",
    "City": "Böblingen",
    "Phone": "+49 (7031) 64960",
    "Email": "boeblingen@caritas-schwarzwald-gaeu.de",
    "Latitude": 45.4101245,
    "Longitude": 12.0044819,
    "Title": "Caritas Schwarzwald-Gäu, Zentrum Böblingen"
  },
  {
    "ContentID": "07b5e20c70b341b7bfae865a047443e1",
    "Street": "Biergasse 11",
    "Zipcode": "75365",
    "City": "Calw",
    "Phone": "+49 (7051) 92590",
    "Email": "calw@caritas-schwarzwald-gaeu.de",
    "Latitude": 48.7155784,
    "Longitude": 8.738698,
    "Title": "Caritas Schwarzwald-Gäu, Zentrum Calw"
  },
  {
    "ContentID": "07308ccd9fb74df1b0f4e234a8440ca3",
    "Street": "Marktplatz 27",
    "Zipcode": "72160",
    "City": "Horb",
    "Phone": "+49 (7451) 55140",
    "Email": "horb@caritas-schwarzwald-gaeu.de",
    "Latitude": 48.4452978,
    "Longitude": 8.6868253,
    "Title": "Caritas Schwarzwald-Gäu, Zentrum Horb"
  },
  {
    "ContentID": "83c580915a3746d3b97892553ade5151",
    "Street": "Ammerstraße 3/1",
    "Zipcode": "71065",
    "City": "Sindelfingen",
    "Phone": "+49 (7031) 611680",
    "Email": "sindelfingen@caritas-schwarzwald-gaeu.de",
    "Latitude": 48.70581,
    "Longitude": 9.00562,
    "Title": "Caritas Schwarzwald-Gäu, Zentrum Sindelfingen"
  },
  {
    "ContentID": "19ee8ff2f13348a093af58a69d949e7b",
    "Street": "Albrechtstraße 4",
    "Zipcode": "72072",
    "City": "Tübingen",
    "Phone": "+49 (7071) 79620",
    "Email": "tuebingen@caritas-schwarzwald-gaeu.de",
    "Latitude": 48.51298,
    "Longitude": 9.05677,
    "Title": "Caritas Schwarzwald-Gäu, Zentrum Tübingen"
  },
  {
    "ContentID": "88296daeb15e4b8b8973a95e39364fe0",
    "Street": "Hehlestraße 2",
    "Zipcode": "89584",
    "City": "Ehingen",
    "Phone": "+49 (7391) 707311",
    "Email": "wichert@caritas-ulm.de",
    "Latitude": 48.28167,
    "Longitude": 9.72871,
    "Title": "Caritas Ulm, Außenstelle Ehingen"
  },
  {
    "ContentID": "554fdaa7c6b349cfb8046512a5ffef5f",
    "Street": "Dorotheenstraße 9-11",
    "Zipcode": "61348",
    "City": "Bad Homburg",
    "Phone": "+49 (6172) 597600",
    "Email": "beratungsstelle@caritas-hochtaunus.de",
    "Latitude": 50.2266372,
    "Longitude": 8.6132533,
    "Title": "Caritas-Beratung Hochtaunus"
  },
  {
    "ContentID": "637c9a90736e459e90005517d58d08ff",
    "Street": "Coriansberg 20",
    "Zipcode": "25524",
    "City": "Itzehoe",
    "Phone": "+49 (4821) 407846",
    "Email": "heckmann@kath-itzehoe.de",
    "Latitude": 53.9235457,
    "Longitude": 9.5251468,
    "Title": "Caritas-Beratungsstelle"
  },
  {
    "ContentID": "6d4731728899463b9eed9997b237db1c",
    "Street": "Feldstraße 24a",
    "Zipcode": "25335",
    "City": "Elmshorn",
    "Phone": "+49 (4121) 268937",
    "Email": "caritas-elmshorn@gmx.de",
    "Latitude": 53.75672,
    "Longitude": 9.65501,
    "Title": "Caritas-Beratungsstelle"
  },
  {
    "ContentID": "11a695cd4a4f4dbaa150b04cb830e22b",
    "Street": "Anton-Saefkow-Platz 3-4",
    "Zipcode": "10369",
    "City": "Berlin",
    "Phone": "+49 (30) 666340500",
    "Email": "asb-fennpfuhl@caritas-berlin.de",
    "Latitude": 52.52982,
    "Longitude": 13.47236,
    "Title": "Caritas-Beratungszentrum Am Fennpfuhl"
  },
  {
    "ContentID": "2f0d2c044ac240bf88644fe7ac7fcd22",
    "Street": "Weißenburger Str. 17",
    "Zipcode": "85072",
    "City": "Eichstätt",
    "Phone": "+49 (8421) 97550",
    "Email": "Josef.Wintergerst@caritas-ingolstadt.de,Hans.Wiesner@caritas-eichstaett.de,Renate.Wolf-Forsthofer@caritas-eichstaett.de",
    "Latitude": 48.89438,
    "Longitude": 11.17778,
    "Title": "Caritas-Kreisstelle Eichstätt - Allgemeine Sozialberatung"
  },
  {
    "ContentID": "fc9020c5e02740efa797b9ed9f93f7d1",
    "Street": "Giesbertsstraße 67c",
    "Zipcode": "90473",
    "City": "Nürnberg",
    "Phone": "+49 (911) 8001107",
    "Email": "kreisstelle@caritas-nuernberg-sued.de,michael.glaser@caritas-nuernberg-sued.de,gertrud.ziegler@caritas-nuernberg-sued.de",
    "Website": "https://www.caritas-nuernberg-sued.de",
    "Latitude": 49.4014613,
    "Longitude": 11.1435122,
    "Title": "Caritas-Kreisstelle Nürnberg-Süd"
  },
  {
    "ContentID": "613b2f155ea946ca83af997755671da9",
    "Street": "Penzendorferstraße 20",
    "Zipcode": "91122",
    "City": "Schwabach",
    "Phone": "+49 (9171) 879341",
    "Email": "kreisstelle@caritas-roth.de",
    "Latitude": 49.3288905,
    "Longitude": 11.0244827,
    "Title": "Caritas-Kreisstelle Roth, Außenstelle Schwabach"
  },
  {
    "ContentID": "0204b4c911334dda8f55592326406410",
    "Street": "Straße der Jugend 23",
    "Zipcode": "03046",
    "City": "Cottbus",
    "Phone": "+49 (355) 38003730",
    "Email": "regionalstelle@caritas-cottbus.de",
    "Latitude": 51.7520649,
    "Longitude": 14.3334005,
    "Title": "Caritas-Regionalstelle Cottbus, Allgemeine Soziale Beratung"
  },
  {
    "ContentID": "1e46e12d9e8d45c08586be1a82f6b6df",
    "Street": "Straße der Republik 2a",
    "Zipcode": "15890",
    "City": "Eisenhüttenstadt",
    "Phone": "+49 (3364) 800380",
    "Email": "Nebenstelle.Eisenhuettenstadt@caritas-cottbus.de",
    "Latitude": 45.4101245,
    "Longitude": 12.0044819,
    "Title": "Caritas-Regionalstelle Cottbus, Nebenstelle Eisenhüttenstadt (ASB)"
  },
  {
    "ContentID": "4c56283d0e014294bd6fe03021f49244",
    "Street": "Wilhelmplatz 2",
    "Zipcode": "02826",
    "City": "Görlitz",
    "Phone": "+49 (3581) 420020",
    "Email": "kreisstelle@caritasgoerlitz.de",
    "Latitude": 51.1481975,
    "Longitude": 14.975409,
    "Title": "Caritas-Regionalstelle Görlitz, Allgemeine Soziale Beratung"
  },
  {
    "ContentID": "547cc17c5ef74512869456d0e560b9fe",
    "Street": "Ludwig-von-Beethoven-Straße 26",
    "Zipcode": "02977",
    "City": "Hoyerswerda",
    "Phone": "+49 (3571) 979256",
    "Email": "sozialberatung@caritas-hoyerswerda.de",
    "Latitude": 45.4101245,
    "Longitude": 12.0044819,
    "Title": "Caritas-Regionalstelle Hoyerswerda, Allgemeine Soziale Beratung"
  },
  {
    "ContentID": "268deee43ebc4d93908b2b40b3d9d747",
    "Street": "Bahnmeistergasse 6",
    "Zipcode": "01968",
    "City": "Senftenberg",
    "Phone": "+49 (3573) 140493",
    "Email": "kreisstelle@caritas-senftenberg.de",
    "Latitude": 51.5252937,
    "Longitude": 13.999569,
    "Title": "Caritas-Regionalstelle Senftenberg, Allgemeine Soziale Beratung"
  },
  {
    "ContentID": "b218df65478f45ce93b41d0c1cccf087",
    "Street": "Karl-Liebknecht-Straße 30",
    "Zipcode": "01963",
    "City": "Großräschen",
    "Phone": "+49 (35753) 6050",
    "Email": "caritas-sozialstation-gross@t-online.de",
    "Latitude": 45.4101245,
    "Longitude": 12.0044819,
    "Title": "Caritas-Regionalstelle Senftenberg, Caritas-Sozialstation (ASB)"
  },
  {
    "ContentID": "b1376d2aafec485683c111f453410492",
    "Street": "Bahnmeistergasse 6",
    "Zipcode": "01968",
    "City": "Senftenberg",
    "Phone": "+49 (3573) 795689",
    "Email": "sozialstation.senftenberg@caritas-senftenberg.de",
    "Latitude": 51.5252937,
    "Longitude": 13.999569,
    "Title": "Caritas-Regionalstelle Senftenberg, Caritas-Sozialstation (ASB)"
  },
  {
    "ContentID": "09bffcaba9c148649fa7ad0222b71801",
    "Street": "Geschwister-Scholl-Straße 2",
    "Zipcode": "03238",
    "City": "Finsterwalde",
    "Phone": "+49 (3531) 61362",
    "Email": "nebenstelle.finsterwalde@caritas-senftenberg.de",
    "Latitude": 51.6278943,
    "Longitude": 13.7122434,
    "Title": "Caritas-Regionalstelle Senftenberg, Nebenstelle Finsterwalde (ASB)"
  },
  {
    "ContentID": "5c647e0f3c2c4560916febae5b56ebca",
    "Street": "Am kleinen Hain 28",
    "Zipcode": "15907",
    "City": "Lübben",
    "Phone": "+49 (3546) 181980",
    "Email": "CaritaskreisstelleLuebben@t-online.de",
    "Latitude": 51.9433023,
    "Longitude": 13.8975627,
    "Title": "Caritas-Regionalstelle Senftenberg, Nebenstelle Lübben (ASB)"
  },
  {
    "ContentID": "b0fa173d2e4f40339879b49377d7e532",
    "Street": "Otto-Grotewohl-Straße 4a",
    "Zipcode": "03233",
    "City": "Lübbenau",
    "Phone": "+49 (3542) 2320",
    "Email": "sozialberatung-luebbenau@caritas-senftenberg.de",
    "Latitude": 51.8603587,
    "Longitude": 13.94093,
    "Title": "Caritas-Regionalstelle Senftenberg, Nebenstelle Lübbenau (ASB)"
  },
  {
    "ContentID": "e89e854c8752470696ccf98ad73bf4e5",
    "Street": "Stadtplatz 1",
    "Zipcode": "84307",
    "City": "Eggenfelden",
    "Phone": "+49 (8721) 911105",
    "Email": "caritassekretariat.eg@freenet.de",
    "Latitude": 48.4037839,
    "Longitude": 12.7618212,
    "Title": "Caritassekretariat Eggenfelden e.V."
  },
  {
    "ContentID": "0c90c7fac4e54ee19550ac7b13db30f7",
    "Street": "Dr.-Schellerer-Straße 22b",
    "Zipcode": "94234",
    "City": "Viechtach",
    "Phone": "+49 (9942) 94880",
    "Email": "asb-sb@caritas-viechtach.de",
    "Latitude": 49.07582,
    "Longitude": 12.8914,
    "Title": "Caritassekretariat Viechtach e.V."
  },
  {
    "ContentID": "72ba7ec807114b7aa30f777ea7bc304d",
    "Street": "Martinstraße 56",
    "Zipcode": "77855",
    "City": "Achern",
    "Phone": "+49 (7841) 62140",
    "Email": "scalisi@caritas-acher-renchtal.de",
    "Latitude": 48.62888,
    "Longitude": 8.08243,
    "Title": "Caritasverband Acher-Renchtal e.V."
  },
  {
    "ContentID": "50db8a2db8884be18c8e560363fd5ecd",
    "Street": "Rathausstr. 5",
    "Zipcode": "57610",
    "City": "Altenkirchen",
    "Phone": "+49 (2681) 2056",
    "Email": "info@caritas-altenkirchen.de",
    "Latitude": 50.68835,
    "Longitude": 7.6482,
    "Title": "Caritasverband Altenkirchen e.V."
  },
  {
    "ContentID": "d3f72f626b8f49138723219ea0bbb5e5",
    "Street": "Dreifaltigkeitsstraße 3",
    "Zipcode": "92224",
    "City": "Amberg",
    "Phone": "+49 (9621) 47550",
    "Email": "Michael.Imgrund@caritas-amberg.de",
    "Latitude": 49.4427986,
    "Longitude": 11.8727271,
    "Title": "Caritasverband Amberg-Sulzbach e.V."
  },
  {
    "ContentID": "74937e7bb7f74c78aa59249e8e461cba",
    "Street": "Hellefelder Straße 27-29",
    "Zipcode": "59821",
    "City": "Arnsberg",
    "Phone": "+49 (2931) 806613",
    "Email": "info@caritas-arnsberg.de",
    "Latitude": 51.3937472,
    "Longitude": 8.0699055,
    "Title": "Caritasverband Arnsberg-Sundern e.V."
  },
  {
    "ContentID": "90621053ee4c412b9ce8fa96cc736976",
    "Street": "Kasernenstraße 30",
    "Zipcode": "38102",
    "City": "Braunschweig",
    "Phone": "+49 (531) 380080",
    "Email": "info@caritas-bs.de",
    "Latitude": 52.267801,
    "Longitude": 10.5357831,
    "Title": "Caritasverband Braunschweig e.V."
  },
  {
    "ContentID": "049990f9bdd745efbbd4740222ee3a90",
    "Street": "Georg-Gröning-Straße 55",
    "Zipcode": "28209",
    "City": "Bremen",
    "Phone": "+49 (421) 335730",
    "Email": "Onlineberatung-ASB-HB@caritas-os.de",
    "Website": "https://www.caritas-bremen.de",
    "Latitude": 53.0839693,
    "Longitude": 8.8331206,
    "Title": "Caritasverband Bremen e.V."
  },
  {
    "ContentID": "6300f54682c5488a889c19950588b42b",
    "Street": "Scharfenberger Straße 19",
    "Zipcode": "59929",
    "City": "Brilon",
    "Phone": "+49 (2961) 971929",
    "Email": "info@caritas-brilon.de,t.kupitz@caritas-brilon.de,s.geck@caritas-brilon.de",
    "Latitude": 51.4002259,
    "Longitude": 8.5669144,
    "Title": "Caritasverband Brilon e.V."
  },
  {
    "ContentID": "ce509fdc980b43dbbb211fb44abd705a",
    "Street": "Friedhofstraße 11",
    "Zipcode": "76646",
    "City": "Bruchsal",
    "Phone": "+49 (7251) 80080",
    "Email": "joerg.roeder@caritas-bruchsal.de",
    "Latitude": 49.1224164,
    "Longitude": 8.6001608,
    "Title": "Caritasverband Bruchsal e.V."
  },
  {
    "ContentID": "a9b74a6ed9ba4eabbbe36ddc454ac7f4",
    "Street": "Bullenberg 6",
    "Zipcode": "29221",
    "City": "Celle",
    "Phone": "+49 (5141) 750820",
    "Email": "caritas-celle@t-online.de",
    "Latitude": 52.6205439,
    "Longitude": 10.077621,
    "Title": "Caritasverband Celle Stadt und Land e.V."
  },
  {
    "ContentID": "22032cd153504139b27da21825d33990",
    "Street": "Klosterstraße 13",
    "Zipcode": "93413",
    "City": "Cham",
    "Phone": "+49 (9971) 84690",
    "Email": "singer@caritas-cham.de",
    "Latitude": 49.2186516,
    "Longitude": 12.6623262,
    "Title": "Caritasverband Cham e.V."
  },
  {
    "ContentID": "e8f4b1a7149d4f66be9b3e60d7db5e47",
    "Street": "Ernst-Faber-Straße 12",
    "Zipcode": "96450",
    "City": "Coburg",
    "Phone": "+49 (9561) 814416",
    "Email": "n.hartz@caritas-coburg.de",
    "Latitude": 50.24893,
    "Longitude": 10.96758,
    "Title": "Caritasverband Coburg e.V."
  },
  {
    "ContentID": "1e7022e1ff054a2e9b83d4f775c9c675",
    "Street": "Grodener Chaussee 21",
    "Zipcode": "27472",
    "City": "Cuxhaven",
    "Phone": "+49 (4721) 62982",
    "Email": "caritas-cuxhaven@web.de",
    "Latitude": 53.8549364,
    "Longitude": 8.7082126,
    "Title": "Caritasverband Cuxhaven e.V."
  },
  {
    "ContentID": "1214d882c3aa4d62bbb8d5f97cf267a0",
    "Street": "Heinrichstraße 32A",
    "Zipcode": "64283",
    "City": "Darmstadt",
    "Phone": "+49 (6151) 9990",
    "Email": "alb@caritas-darmstadt.de",
    "Latitude": 49.8663715,
    "Longitude": 8.6538615,
    "Title": "Caritasverband Darmstadt e.V."
  },
  {
    "ContentID": "70c89b9edb134e0f981696d51428a644",
    "Street": "Weißturmstraße 29",
    "Zipcode": "64807",
    "City": "Dieburg",
    "Phone": "+49 (6071) 986611",
    "Email": "alb@caritas-dieburg.de",
    "Latitude": 49.8969294,
    "Longitude": 8.8391595,
    "Title": "Caritasverband Darmstadt e.V., Außenstelle Dieburg"
  },
  {
    "ContentID": "aa14d381856e43478da1feb66e5786ee",
    "Street": "Untere Seewiese 11",
    "Zipcode": "64711",
    "City": "Erbach",
    "Phone": "+49 (6062) 955330",
    "Email": "alb@caritas-erbach.de",
    "Latitude": 49.66181,
    "Longitude": 8.99296,
    "Title": "Caritasverband Darmstadt e.V., Außenstelle f.d. Odenwaldkreis"
  },
  {
    "ContentID": "45337cff409d4ce0a9a01a272c381587",
    "Street": "Bensheimer Weg 16",
    "Zipcode": "64646",
    "City": "Heppenheim",
    "Phone": "+49 (6252) 990132",
    "Email": "alb@caritas-bergstrasse.de",
    "Latitude": 49.6445866,
    "Longitude": 8.6415948,
    "Title": "Caritasverband Darmstadt e.V., Außenstelle f.d.Landkreis Bergstraße"
  },
  {
    "ContentID": "171fe6a252d24ee6a0a8d208fbc66838",
    "Street": "Am Pferdemarkt 20",
    "Zipcode": "94469",
    "City": "Deggendorf",
    "Phone": "+49 (991) 38970",
    "Email": "schober@caritas-deggendorf.de",
    "Latitude": 48.82957,
    "Longitude": 12.96286,
    "Title": "Caritasverband Deggendorf e.V."
  },
  {
    "ContentID": "809e248aa32b49b294dfe192f0457f54",
    "Street": "Reichenbacher Straße 36",
    "Zipcode": "08056",
    "City": "Zwickau",
    "Phone": "+49 (375) 3903821",
    "Email": "verband@caritas-zwickau.de",
    "Latitude": 50.7161488,
    "Longitude": 12.4850382,
    "Title": "Caritasverband Dekanat Zwickau e.V."
  },
  {
    "ContentID": "f58e458f91fb4b2ba1c9ffa662b12b0d",
    "Street": "Bahnhofstraße 16",
    "Zipcode": "08280",
    "City": "Aue",
    "Phone": "+49 (3771) 598330",
    "Email": "aue@caritas-zwickau.de",
    "Latitude": 50.5875128,
    "Longitude": 12.7027158,
    "Title": "Caritasverband Dekanat Zwickau e.V."
  },
  {
    "ContentID": "23fd007a7d4f47da813d02679bc51043",
    "Street": "Griesgasse 13",
    "Zipcode": "84130",
    "City": "Dingolfing",
    "Phone": "+49 (8731) 31600",
    "Email": "asb@caritas-dingolfing.de",
    "Latitude": 48.6277191,
    "Longitude": 12.4977005,
    "Title": "Caritasverband Dingolfing e.V."
  },
  {
    "ContentID": "5703e64a0a8e462bab14096139339587",
    "Street": "Osterlandwehr 12 - 14",
    "Zipcode": "44145",
    "City": "Dortmund",
    "Phone": "+49 (231) 8610800",
    "Email": "bernhard-maerz@caritas-dortmund.de",
    "Website": "https://www.caritas-dortmund.de",
    "Latitude": 51.521439,
    "Longitude": 7.4817981,
    "Title": "Caritasverband Dortmund e.V., Bernhard-März-Haus"
  },
  {
    "ContentID": "8ac682ed7a6a41719b7785c1b54a487c",
    "Street": "Dr.-Wilhelm-Külz-Straße",
    "Zipcode": "01796",
    "City": "Pirna",
    "Phone": "+49 (3501) 443470",
    "Email": "caritas-pirna@t-online.de",
    "Latitude": 50.9607439,
    "Longitude": 13.9406493,
    "Title": "Caritasverband Dresden e.V."
  },
  {
    "ContentID": "f69ebf45227b4a37abcfc8b988d7fc05",
    "Street": "Schweriner Straße 27",
    "Zipcode": "01067",
    "City": "Dresden",
    "Phone": "+49 (351) 4984713",
    "Email": "info@caritas-dresden.de",
    "Latitude": 51.05222,
    "Longitude": 13.72793,
    "Title": "Caritasverband Dresden e.V."
  },
  {
    "ContentID": "0b920a45524a4932ac710897019e50c1",
    "Street": "Klosterstraße 92",
    "Zipcode": "40211",
    "City": "Düsseldorf",
    "Phone": "+49 (211) 16022183",
    "Email": "Sandra.Mueller@caritas-duesseldorf.de",
    "Latitude": 51.2301142,
    "Longitude": 6.7928835,
    "Title": "Caritasverband Düsseldorf e.V., Referat Berufliche und Soziale Integration"
  },
  {
    "ContentID": "2c66f418d7a9476a90b8f94c254071ca",
    "Street": "Lessingstraße 36/1",
    "Zipcode": "79312",
    "City": "Emmendingen",
    "Phone": "+49 (7641) 9214113",
    "Email": "b.reisenweber@caritas-emmendingen.de",
    "Latitude": 48.10638,
    "Longitude": 7.8606,
    "Title": "Caritasverband Emmendingen e.V."
  },
  {
    "ContentID": "0561a06fd8474fe4bb2969f5cf672f4a",
    "Street": "Konstantinstraße 50-52",
    "Zipcode": "54329",
    "City": "Konz",
    "Phone": "+49 (6501) 943020",
    "Email": "wingertszahn.ulrich@caritas-region-trier.de",
    "Latitude": 49.6983965,
    "Longitude": 6.5773097,
    "Title": "Caritasverband f.d. Region Trier e.V., Außenstelle Konz (ASD)"
  },
  {
    "ContentID": "8301cac4001b4758bfcbbdf482e28749",
    "Street": "Sundgauallee 8",
    "Zipcode": "79110",
    "City": "Freiburg",
    "Phone": "+49 (761) 1378210",
    "Email": "roswitha.strueber@caritas-freiburg.de",
    "Latitude": 48.0049455,
    "Longitude": 7.8226307,
    "Title": "Caritasverband Freiburg-Stadt e.V."
  },
  {
    "ContentID": "2fec68abcaba4624af572dddeb555b99",
    "Street": "Komturstraße 36",
    "Zipcode": "79106",
    "City": "Freiburg",
    "Phone": "+49 (761) 5047813",
    "Email": "elisabeth.wirth-krieger@caritas-freiburg.de",
    "Latitude": 48.0118194,
    "Longitude": 7.852093,
    "Title": "Caritasverband Freiburg-Stadt e.V."
  },
  {
    "ContentID": "e59da33069124f7a8cecb93fe1c52e4c",
    "Street": "Herrenstraße 6",
    "Zipcode": "79098",
    "City": "Freiburg",
    "Phone": "+49 (761) 3191666",
    "Email": "csd-schuldnerberatung@caritas-freiburg.de",
    "Latitude": 47.9963186,
    "Longitude": 7.8539888,
    "Title": "Caritasverband Freiburg-Stadt e.V."
  },
  {
    "ContentID": "644a15ae36b5444199b8efd0104ca9ae",
    "Street": "Huestraße 15",
    "Zipcode": "44787",
    "City": "Bochum",
    "Phone": "+49 (234) 964220",
    "Email": "webmaster@caritas-bochum.de",
    "Latitude": 51.4796046,
    "Longitude": 7.21929,
    "Title": "Caritasverband für Bochum e.V."
  },
  {
    "ContentID": "7207e10fd13047018b6720a301d1cd02",
    "Street": "Frenssenstraße 61",
    "Zipcode": "27576",
    "City": "Bremerhaven",
    "Phone": "+49 (471) 55025",
    "Email": "caritas-bremerhaven@t-online.de",
    "Latitude": 53.55853,
    "Longitude": 8.57405,
    "Title": "Caritasverband für Bremerhaven, und den Landkreis Cuxhaven e.V."
  },
  {
    "ContentID": "8d4af7b17651480bae08475fecc0c351",
    "Street": "Ludwig-Kirsch-Straße 13",
    "Zipcode": "09130",
    "City": "Chemnitz",
    "Phone": "+49 (371) 4320824",
    "Email": "info@caritas-chemnitz.de",
    "Latitude": 50.8373466,
    "Longitude": 12.9365228,
    "Title": "Caritasverband für Chemnitz, und Umgebung e.V."
  },
  {
    "ContentID": "2915098831de4127ab4c68f907462a25",
    "Street": "Hospitalweg 2",
    "Zipcode": "09599",
    "City": "Freiberg",
    "Phone": "+49 (3731) 202220",
    "Email": "freiberg@caritas-chemnitz.de",
    "Latitude": 50.91377,
    "Longitude": 13.33586,
    "Title": "Caritasverband für Chemnitz, und Umgenburg e.V."
  },
  {
    "ContentID": "c797706dce1c4c73b8b9113051e3d712",
    "Street": "Theaterstraße 5",
    "Zipcode": "06406",
    "City": "Bernburg",
    "Phone": "+49 (3471) 370079",
    "Email": "info@caritas-egeln.de",
    "Latitude": 51.7944,
    "Longitude": 11.73694,
    "Title": "Caritasverband für das Dekanat Egeln e.V., Caritassekretariat Bernburg"
  },
  {
    "ContentID": "bfafb1982e304764b6b461f108aeea2a",
    "Street": "Gutleuthhausstraße 8",
    "Zipcode": "72379",
    "City": "Hechingen",
    "Phone": "+49 (7471) 93320",
    "Email": "csd@caritas-hechingen.de,csd2@caritas-hechingen.de",
    "Latitude": 48.3581716,
    "Longitude": 8.98394,
    "Title": "Caritasverband für das Dekanat Zollen e.V."
  },
  {
    "ContentID": "91a498c84b6a44a28d3de33ff4c23158",
    "Street": "Werdohler Straße 3",
    "Zipcode": "58762",
    "City": "Altena",
    "Phone": "+49 (2352) 919320",
    "Email": "eb@caritas-altena.de",
    "Latitude": 51.288425,
    "Longitude": 7.6796792,
    "Title": "Caritasverband für das Dekanat, Altena-Lüdenscheid e.V."
  },
  {
    "ContentID": "b716ef85541b4c63ae9ec737577b7e3b",
    "Street": "Gerhard-Rohlfs-Straße 17/18",
    "Zipcode": "28757",
    "City": "Bremen",
    "Phone": "+49 (421) 660770",
    "Email": "info@caritas-bremen-nord.de",
    "Latitude": 53.17264,
    "Longitude": 8.61888,
    "Title": "Caritasverband für das Dekanat, Bremen Nord e.V."
  },
  {
    "ContentID": "9c54817728f24caca9e08e89a4d0abf6",
    "Street": "Königstraße 13",
    "Zipcode": "32423",
    "City": "Minden",
    "Phone": "+49 (571) 828999",
    "Email": "info@caritas-minden.de",
    "Latitude": 52.2862668,
    "Longitude": 8.9120471,
    "Title": "Caritasverband für das Dekenat Minden e.V."
  },
  {
    "ContentID": "7ac3dd2a9ccd4f56a4e47a03a0017b1d",
    "Street": "Bahnhofstraße 23",
    "Zipcode": "45525",
    "City": "Hattingen",
    "Phone": "+49 (2324) 22094",
    "Email": "info@caritas-hattingen.de",
    "Latitude": 51.39986,
    "Longitude": 7.17855,
    "Title": "Caritasverband für das Kreisdekanat, Hattingen-Schwelm e.V."
  },
  {
    "ContentID": "df0a97adff7448b890e3ed017c176037",
    "Street": "Teichstraße 65",
    "Zipcode": "06844",
    "City": "Dessau",
    "Phone": "+49 (340) 213943",
    "Email": "info@caritas-dessau.de",
    "Latitude": 51.8389225,
    "Longitude": 12.247017,
    "Title": "Caritasverband für das, Dekanat Dessau e.V."
  },
  {
    "ContentID": "ca6f515c26fa41e4bdc62dd3a9a2572e",
    "Street": "Klosterplatz 38a",
    "Zipcode": "06295",
    "City": "Lutherstadt Eisleben",
    "Phone": "+49 (3475) 604144",
    "Email": "info@caritas-eisleben.de",
    "Latitude": 51.53131,
    "Longitude": 11.5490899,
    "Title": "Caritasverband für das, Dekanat Eisleben e.V."
  },
  {
    "ContentID": "2996d6c253d44434a7a82a21b373cb39",
    "Street": "Gröperstraße 33",
    "Zipcode": "38820",
    "City": "Halberstadt",
    "Phone": "+49 (3941) 26098",
    "Email": "info@caritas-halberstadt.de",
    "Latitude": 51.89895,
    "Longitude": 11.04777,
    "Title": "Caritasverband für das, Dekanat Halberstadt e.V."
  },
  {
    "ContentID": "5f389a3eebbb404d8efe54920e44278b",
    "Street": "Max-Josef-Metzger-Straße 1a",
    "Zipcode": "39104",
    "City": "Magdeburg",
    "Phone": "+49 (391) 961201",
    "Email": "verena.mueller@caritas-magdeburg-stadt.de",
    "Latitude": 52.12561,
    "Longitude": 11.63115,
    "Title": "Caritasverband für das, Dekanat Magdeburg e.V."
  },
  {
    "ContentID": "167d35dbc75d448fbd2345ce76ff329a",
    "Street": "Wettinstraße 15",
    "Zipcode": "01662",
    "City": "Meißen",
    "Phone": "+49 (3521) 469620",
    "Email": "vogt@caritas-meissen.de",
    "Latitude": 51.1544009,
    "Longitude": 13.4651744,
    "Title": "Caritasverband für das, Dekanat Meißen e.V."
  },
  {
    "ContentID": "98dd3de5886343ee8187e3849782014d",
    "Street": "Leopold-Kell-Straße 2a",
    "Zipcode": "06667",
    "City": "Weißenfels",
    "Phone": "+49 (3443) 303617",
    "Email": "info@caritas-naumburg-zeitz.de",
    "Latitude": 51.2010409,
    "Longitude": 11.9663617,
    "Title": "Caritasverband für das, Dekanat Naumburg/Zeitz e.V."
  },
  {
    "ContentID": "bf15808ca6124528a4872383ae902ee3",
    "Street": "Brüderstraße 25",
    "Zipcode": "39576",
    "City": "Stendal",
    "Phone": "+49 (3931) 715566",
    "Email": "ewald.kittner@caritas-stendal.de",
    "Latitude": 52.60422,
    "Longitude": 11.85817,
    "Title": "Caritasverband für das, Dekanat Stendal e.V."
  },
  {
    "ContentID": "c4fb7c98cfdd4befa2a2d96ea900c888",
    "Street": "Karl-Marx-Platz 1c",
    "Zipcode": "04860",
    "City": "Torgau",
    "Phone": "+49 (3421) 711679",
    "Email": "info@caritas-torgau.de",
    "Latitude": 51.55793,
    "Longitude": 12.99734,
    "Title": "Caritasverband für das, Dekanat Torgau e.V."
  },
  {
    "ContentID": "9729f502c65e496da6f197c6b34dcdfb",
    "Street": "Südring 2",
    "Zipcode": "04924",
    "City": "Bad Liebenwerda",
    "Phone": "+49 (35341) 31260",
    "Email": "karsten.holling@caritas-bad-liebenwerda.de",
    "Latitude": 51.5157721,
    "Longitude": 13.3900035,
    "Title": "Caritasverband für das, Dekanat Torgau e.V., Caritassekretariat Bad Liebenwerda"
  },
  {
    "ContentID": "cf7ed18044ff4c06806cd54b511f69aa",
    "Street": "Bürgermeisterstraße 12",
    "Zipcode": "06886",
    "City": "Lutherstadt Wittenberg",
    "Phone": "+49 (3491) 411040",
    "Email": "info@caritas-wittenberg.de",
    "Latitude": 51.8669396,
    "Longitude": 12.5926233,
    "Title": "Caritasverband für das, Dekanat Wittenberg e.V."
  },
  {
    "ContentID": "48ca3707d7db432db94b9ab762dd8b63",
    "Street": "Reifferscheidstraße 2 - 4",
    "Zipcode": "50354",
    "City": "Hürth",
    "Phone": "+49 (2233) 79900",
    "Email": "uhler@caritas-rhein-erft.de",
    "Latitude": 50.88329,
    "Longitude": 6.88871,
    "Title": "Caritasverband für den Erftkreis e.V."
  },
  {
    "ContentID": "7f369efe91f7403ea14090e36bf9838c",
    "Street": "Palaisstraße 27",
    "Zipcode": "32756",
    "City": "Detmold",
    "Phone": "+49 (5231) 992983",
    "Email": "bartonitschek@caritas-dt.de",
    "Latitude": 51.9319692,
    "Longitude": 8.8719608,
    "Title": "Caritasverband für den Kreis Lippe und die Stadt Bad Pyrmont e.V."
  },
  {
    "ContentID": "81122ce33997476db09e7c621140e080",
    "Street": "Osthofenstraße 35a",
    "Zipcode": "59494",
    "City": "Soest",
    "Phone": "+49 (2921) 35900",
    "Email": "info@caritas-soest.de",
    "Latitude": 51.57291,
    "Longitude": 8.1119,
    "Title": "Caritasverband für den Kreis Soest e.V."
  },
  {
    "ContentID": "377ef0ad826842b48cbd5394ba2e5d82",
    "Street": "Hartmannstraße 2a",
    "Zipcode": "97688",
    "City": "Bad Kissingen",
    "Phone": "+49 (971) 72469206",
    "Email": "asbd@caritas-kissingen.de",
    "Website": "https://www.caritas-kissingen.de/ich-brauche-hilfe/hilfe-in-not-001/sozialberatung",
    "Latitude": 50.20077,
    "Longitude": 10.0793812,
    "Title": "Caritasverband für den Landkreis Bad Kissingen e.V."
  },
  {
    "ContentID": "2370ab4e1b7e4d2fa924985ed257b2c3",
    "Street": "Josephstraße 27",
    "Zipcode": "96052",
    "City": "Bamberg",
    "Phone": "+49 (951) 981800",
    "Email": "cv.bamberg-land@caritas-bamberg.de, beate.roellich@caritas-bamberg.de, boris.goerrissen@caritas-bamberg.de",
    "Website": "https://www.caritas-landkreis-bamberg.de",
    "Latitude": 49.9128934,
    "Longitude": 10.8964729,
    "Title": "Caritasverband für den Landkreis Bamberg e.V. - Soziale Beratungsstelle -"
  },
  {
    "ContentID": "06af3064678445989ea5eee947a7eb7f",
    "Street": "Burgstraße 30",
    "Zipcode": "49808",
    "City": "Lingen",
    "Phone": "+49 (591) 800620",
    "Email": "ikampf@caritas-os.de",
    "Latitude": 52.5231098,
    "Longitude": 7.3205352,
    "Title": "Caritasverband für den Landkreis Emsland e.V., Beratungsstelle Lingen"
  },
  {
    "ContentID": "725b7963cfc54eb5863b993673bad805",
    "Street": "Elsternweg 1",
    "Zipcode": "21423",
    "City": "Winsen",
    "Phone": "+49 (4171) 653122",
    "Email": "caritas-harburg@t-online.de",
    "Latitude": 53.36738,
    "Longitude": 10.19967,
    "Title": "Caritasverband für den Landkreis Harburg e.V."
  },
  {
    "ContentID": "f360170697314b9b9ff859d44b729239",
    "Street": "Obere Vorstadt 19",
    "Zipcode": "97437",
    "City": "Haßfurt",
    "Phone": "+49 (9521) 69122",
    "Email": "asbd@caritas-hassberge.de",
    "Website": "https://www.caritas-hassberge.de/ich-brauche-hilfe/beratung/sozialberatung-allgemein",
    "Latitude": 50.03169,
    "Longitude": 10.51247,
    "Title": "Caritasverband für den Landkreis Haßberge e.V."
  },
  {
    "ContentID": "26121b2512894fd29ae351e8ba3b2ec5",
    "Street": "Poststraße 16",
    "Zipcode": "38350",
    "City": "Helmstedt",
    "Phone": "+49 (5351) 8382",
    "Email": "th.hartmann@caritas-helmstedt.de",
    "Latitude": 52.228966,
    "Longitude": 11.009544,
    "Title": "Caritasverband für den Landkreis Helmstedt e.V."
  },
  {
    "ContentID": "2d262c4318d64c7aac28c3d381c776c0",
    "Street": "Schrannenstraße 10",
    "Zipcode": "97318",
    "City": "Kitzingen",
    "Phone": "+49 (9321) 22030",
    "Email": "juergen.fuchs@caritas-kitzingen.de",
    "Website": "https://www.caritas-kitzingen.de/ich-brauche-hilfe/asbd-kleidermarkt/index.html",
    "Latitude": 49.73887,
    "Longitude": 10.16383,
    "Title": "Caritasverband für den Landkreis Kitzingen e.V."
  },
  {
    "ContentID": "31773dbda77744d38a59c26f30e61601",
    "Street": "Feuewehrstraße 6",
    "Zipcode": "78224",
    "City": "Singen",
    "Phone": "+49 (7731) 956123",
    "Email": "scamuffa@caritas-singen.de",
    "Latitude": 47.798611,
    "Longitude": 8.8703315,
    "Title": "Caritasverband für den Landkreis Konstanz e.V., Bezirksverband Singen"
  },
  {
    "ContentID": "29ac1b9b9cde4035883997f60fcefc98",
    "Street": "Marktplatz 3",
    "Zipcode": "78333",
    "City": "Stockach",
    "Phone": "+49 (7771) 2483",
    "Email": "starz@caritas-singen.de",
    "Latitude": 47.8532925,
    "Longitude": 9.0134513,
    "Title": "Caritasverband für den Landkreis Konstanz e.V., Bezirksverband Singen"
  },
  {
    "ContentID": "1feb8270964a4911b7461dc266ec7fba",
    "Street": "Vorstadtstraße 68",
    "Zipcode": "97816",
    "City": "Lohr am Main",
    "Phone": "+49 (9352) 843119",
    "Email": "asbd@caritas-msp.de",
    "Website": "https://www.caritas-msp.de/hilfe-und-beratung/allgemeiner-beratungsdienst#allgemeiner-sozialer-beratungsdienst",
    "Latitude": 49.9914564,
    "Longitude": 9.5772435,
    "Title": "Caritasverband für den Landkreis Main-Spessart e.V."
  },
  {
    "ContentID": "52d06d5216d0428c99a50250eaca15a3",
    "Street": "Hauptstraße 60",
    "Zipcode": "63897",
    "City": "Miltenberg",
    "Phone": "+49 (931) 9789545",
    "Email": "w-berninger@caritas-mil.de",
    "Website": "https://www.caritas-mil.de/unsere-einsatzfelder/besondere-lebenslagen/allgemeine-sozialberatung",
    "Latitude": 49.70166,
    "Longitude": 9.25761,
    "Title": "Caritasverband für den Landkreis Miltenberg e.V."
  },
  {
    "ContentID": "1998093bb92a47548ccc27b5aa8756b2",
    "Street": "Carl-Friedrich-Straße 10",
    "Zipcode": "76437",
    "City": "Rastatt",
    "Phone": "+49 (7222) 77529",
    "Email": "m.rauscher@caritas-rastatt.de",
    "Latitude": 48.8518776,
    "Longitude": 8.2062594,
    "Title": "Caritasverband für den Landkreis Rastatt e.V."
  },
  {
    "ContentID": "c9a32792a17040bf9a66c13d1e448b95",
    "Street": "Kellereigasse 12-16",
    "Zipcode": "97616",
    "City": "Bad Neustadt/Saale",
    "Phone": "+49 (9771) 61160",
    "Email": "eva.bergmann@caritas-nes.de",
    "Website": "https://www.caritas-rhoengrabfeld.de/ich-brauche-hilfe/allgemeiner-sozialer-beratungsdienst",
    "Latitude": 50.3226064,
    "Longitude": 10.2136103,
    "Title": "Caritasverband für den Landkreis Rhön-Grabfeld e.V."
  },
  {
    "ContentID": "917a6f63ece14cf7b0f912ce925d74ff",
    "Street": "Hermann-Löns-Straße 6",
    "Zipcode": "86316",
    "City": "Friedberg",
    "Phone": "+49 (821) 268910",
    "Email": "info@caritas-aichach-friedberg.de",
    "Latitude": 48.3574224,
    "Longitude": 10.9858925,
    "Title": "Caritasverband für den Landkreis, Aichach-Friedberg e.V."
  },
  {
    "ContentID": "6f8a12515eab419dbbec04a9366d0bad",
    "Street": "Adolph-Kolping-Straße 20",
    "Zipcode": "79822",
    "City": "Titisee-Neustadt",
    "Phone": "+49 (7651) 91180",
    "Email": "bernadette.schlosser@caritas-dicv-dr.de",
    "Latitude": 47.9131294,
    "Longitude": 8.2165815,
    "Title": "Caritasverband für den Landkreis, Breisgau-Hochschwarzwald e.V., Bezirksstelle"
  },
  {
    "ContentID": "33bd94322d1643428219a9303f9422b7",
    "Street": "Alois-Eckert-Straße 5",
    "Zipcode": "79111",
    "City": "Freiburg",
    "Phone": "+49 (761) 8965431",
    "Email": "wolfgang.busse@caritas-dicv-fr.de",
    "Latitude": 48.0128167,
    "Longitude": 7.8058795,
    "Title": "Caritasverband für den Landkreis, Breisgau-Hochschwarzwald e.V., Bezirksstelle Freiburg"
  },
  {
    "ContentID": "e4b20cd94bb04d53b959fe96ad77745f",
    "Street": "Moltkestraße 14",
    "Zipcode": "79379",
    "City": "Müllheim",
    "Phone": "+49 (7631) 7482774",
    "Email": "benedikt.burget@caritas-dicv-fr.de",
    "Latitude": 47.81121,
    "Longitude": 7.6316,
    "Title": "Caritasverband für den Landkreis, Breisgau-Hochschwarzwald e.V., Bezirksstelle Müllheim"
  },
  {
    "ContentID": "64f24f57770e415cbd3e15326027d64a",
    "Street": "Müllheimer Straße 23",
    "Zipcode": "79395",
    "City": "Neuenburg",
    "Phone": "+49 (7631) 705504",
    "Email": "andrea.elsaesser@caritas-dicv-fr.de",
    "Latitude": 47.81293,
    "Longitude": 7.56594,
    "Title": "Caritasverband für den Landkreis, Breisgau-Hochschwarzwald e.V., Soziale Bürgerdienste"
  },
  {
    "ContentID": "76ea674589794db9baa8fcaab25fe476",
    "Street": "Nino-Allee 4",
    "Zipcode": "48529",
    "City": "Nordhorn",
    "Phone": "+49 (5921) 8111153",
    "Email": "twilger@caritas-os.de",
    "Latitude": 52.4281993,
    "Longitude": 7.0695818,
    "Title": "Caritasverband für den Landkreis, Grafschaft Bentheim e.V."
  },
  {
    "ContentID": "ae6139411eff4a98804bf72c64c01313",
    "Street": "Gerwigstraße 6",
    "Zipcode": "78050",
    "City": "Villingen-Schwenningen",
    "Phone": "+49 (7721) 84070",
    "Email": "werner.gutermann@caritas-sbk.de,andrea.klausmann@caritas-sbk.de,helmut.pfeifle@caritas-sbk.de,sandra.muench@caritas-sbk.de,franziska.king@caritas-sbk.de,vera.bohner@caritas-sbk.de, manuela.braun@caritas-sbk.de",
    "Website": "https://www.caritas-sbk.de",
    "Latitude": 48.05497,
    "Longitude": 8.46503,
    "Title": "Caritasverband für den Schwarzwald-Baar-Kreis e.V."
  },
  {
    "ContentID": "c90edb5847fd4665a9d358fafc33eb06",
    "Street": "Schulstraße 5",
    "Zipcode": "78166",
    "City": "Donaueschingen",
    "Phone": "+49 (771) 8322811",
    "Email": "muench@caritas-sbk.de",
    "Latitude": 47.95366,
    "Longitude": 8.49899,
    "Title": "Caritasverband für den Schwarzwald-Baar-Kreis e.V., Außenstelle"
  },
  {
    "ContentID": "a4dad75cef7746de892c810c74f6de55",
    "Street": "Erzbergerstraße 11",
    "Zipcode": "78054",
    "City": "Villingen-Schwenningen",
    "Phone": "+49 (7720) 994234",
    "Email": "gutermann@caritas-sbk.de",
    "Latitude": 48.0587159,
    "Longitude": 8.5332895,
    "Title": "Caritasverband für den Schwarzwald-Baar-Kreis e.V., Außenstelle"
  },
  {
    "ContentID": "77e5dfe60eeb4f94bd13e370c6ab6ad5",
    "Street": "Ob der Kehr 3",
    "Zipcode": "78176",
    "City": "Blumberg",
    "Phone": "+49 (7702) 477621",
    "Email": "schumacher@caritas-sbk.de",
    "Latitude": 47.84083,
    "Longitude": 8.53319,
    "Title": "Caritasverband für den Schwarzwald-Baar-Kreis e.V., Außenstelle"
  },
  {
    "ContentID": "3d3bf36987234f68a5c48576f8b00a7f",
    "Street": "Lindenstraße 6",
    "Zipcode": "78120",
    "City": "Furtwangen",
    "Phone": "+49 (7723) 1075",
    "Email": "klausmann@caritas-sbk.de",
    "Latitude": 48.0509802,
    "Longitude": 8.2065007,
    "Title": "Caritasverband für den Schwarzwald-Baar-Kreis e.V., Außenstelle"
  },
  {
    "ContentID": "ba82393cfe324ca8abfda45fd689328d",
    "Street": "Krankenhausstraße 4",
    "Zipcode": "78187",
    "City": "Geisingen",
    "Phone": "+49 (7704) 922263",
    "Email": "schumacher@caritas-sbk.de",
    "Latitude": 47.904151,
    "Longitude": 8.6421418,
    "Title": "Caritasverband für den Schwarzwald-Baar-Kreis e.V., Außenstelle"
  },
  {
    "ContentID": "26508b5d36f04e5dbf77d17c2fac5be3",
    "Street": "Luisenstraße 9",
    "Zipcode": "79539",
    "City": "Lörrach",
    "Phone": "+49 (7621) 92750",
    "Email": "info@caritas-loerrach.de",
    "Latitude": 47.61641,
    "Longitude": 7.66192,
    "Title": "Caritasverband für den, Landkreis Lörrach e.V."
  },
  {
    "ContentID": "3ec09f488d7a4a7491afa703adf994d0",
    "Street": "Mühlenstraße 10",
    "Zipcode": "36179",
    "City": "Bebra",
    "Phone": "+49 (6622) 3131",
    "Email": "caritas.bebra@caritas-kassel.de",
    "Website": "https://www.rcvkassel.caritas.de",
    "Latitude": 50.9716463,
    "Longitude": 9.7935904,
    "Title": "Caritasverband für den, Keis Hersfeld-Rotenburg e.V."
  },
  {
    "ContentID": "62095bba89824ca09a543323f4ccccc5",
    "Street": "Regens-Wagner-Straße 2",
    "Zipcode": "89407",
    "City": "Dillingen",
    "Phone": "+49 (9071) 72354",
    "Email": "mail@caritas-dillingen.de",
    "Latitude": 48.5785477,
    "Longitude": 10.4903726,
    "Title": "Caritasverband für den, Landkreis Dillingen e.V."
  },
  {
    "ContentID": "651b04afbd7b4d32968a6af7273f2b2d",
    "Street": "Zehenthof 2",
    "Zipcode": "86609",
    "City": "Donauwörth",
    "Phone": "+49 (906) 70595650",
    "Email": "KCV-Donau-Ries@caritas-augsburg.de",
    "Latitude": 48.7186717,
    "Longitude": 10.7771969,
    "Title": "Caritasverband für den, Landkreis Donau-Ries e.V."
  },
  {
    "ContentID": "190c73e966a947fcb45672bff9092c65",
    "Street": "Kuhstraße 42",
    "Zipcode": "49716",
    "City": "Meppen",
    "Phone": "+49 (5931) 98420",
    "Email": "RSchmitz@caritas-os.de",
    "Latitude": 52.7162058,
    "Longitude": 7.264087,
    "Title": "Caritasverband für den, Landkreis Emsland e.V."
  },
  {
    "ContentID": "ca781137107544f1b7338d6fe7555ac5",
    "Street": "Am Markt 9",
    "Zipcode": "49751",
    "City": "Sögel",
    "Phone": "+49 (5952) 93700",
    "Email": "mschuermann@caritas-os.de",
    "Latitude": 52.8404171,
    "Longitude": 7.5216115,
    "Title": "Caritasverband für den, Landkreis Emsland e.V."
  },
  {
    "ContentID": "2f52b849d0624ab2b4c0872376e4dd12",
    "Street": "Kirchstraße 16",
    "Zipcode": "26871",
    "City": "Papenburg",
    "Phone": "+49 (4961) 94410",
    "Email": "GMiddendorf@caritas-os.de",
    "Latitude": 53.08004,
    "Longitude": 7.39595,
    "Title": "Caritasverband für den, Landkreis Emsland e.V."
  },
  {
    "ContentID": "759f199206cc4a36a970f414318b9133",
    "Street": "Lorenz-Werthmann-Straße 2",
    "Zipcode": "76275",
    "City": "Ettlingen",
    "Phone": "+49 (7243) 515123",
    "Email": "sozialberatung@caritas-ettlingen.de",
    "Latitude": 48.9377763,
    "Longitude": 8.3999989,
    "Title": "Caritasverband für den, Landkreis Karlsruhe e.V., Bezirksverband"
  },
  {
    "ContentID": "6a07752126164079a974711b8e7fa2fb",
    "Street": "Bauergasse 3 - 5",
    "Zipcode": "95326",
    "City": "Kulmbach",
    "Phone": "+49 (9221) 957420",
    "Email": "info@caritas-kulmbach.de",
    "Latitude": 50.1057947,
    "Longitude": 11.4584326,
    "Title": "Caritasverband für den, Landkreis Kulmbach e.V."
  },
  {
    "ContentID": "d5a73abd2e7a4959839ea6b8b3f3895c",
    "Street": "Brudergasse 215",
    "Zipcode": "86899",
    "City": "Landsberg",
    "Phone": "+49 (8191) 32957",
    "Email": "caritas.landsberg@t-online.de",
    "Latitude": 48.0524101,
    "Longitude": 10.8759929,
    "Title": "Caritasverband für den, Landkreis Landsberg e.V."
  },
  {
    "ContentID": "1b53c5da78e54e3f87a5499068b9543c",
    "Street": "Fischergasse 14",
    "Zipcode": "88131",
    "City": "Lindau",
    "Phone": "+49 (8382) 94867",
    "Email": "mail@caritasverband-lindau.de",
    "Latitude": 47.5468059,
    "Longitude": 9.6882906,
    "Title": "Caritasverband für den, Landkreis Lindau e.V."
  },
  {
    "ContentID": "1ec7cc1e4cc647569e950d8642e6ca39",
    "Street": "Martin-Luther-Straße 10b",
    "Zipcode": "87527",
    "City": "Sonthofen",
    "Phone": "+49 (8321) 66010",
    "Email": "info@caritas-oberallgaeu.de",
    "Latitude": 47.5159,
    "Longitude": 10.27709,
    "Title": "Caritasverband für den, Landkreis Oberallgäu e.V."
  },
  {
    "ContentID": "b4ae95d8948d406aafa784f70cd0730d",
    "Street": "Angerstraße 1",
    "Zipcode": "87616",
    "City": "Marktoberdorf",
    "Phone": "+49 (8342) 96190",
    "Email": "caritas-ostallgaeu@t-online.de",
    "Latitude": 47.78127,
    "Longitude": 10.61699,
    "Title": "Caritasverband für den, Landkreis Ostallgäu e.V."
  },
  {
    "ContentID": "fc7bec5e49124033abff383331febdf5",
    "Street": "Magisterberg 4",
    "Zipcode": "37412",
    "City": "Herzberg",
    "Phone": "+49 (5521) 71461",
    "Email": "caritasosterode@aol.com",
    "Latitude": 51.6542459,
    "Longitude": 10.3356642,
    "Title": "Caritasverband für den, Landkreis Osterode e.V."
  },
  {
    "ContentID": "2cf56bcef5954d4b93109b1e0bfb804c",
    "Street": "Am Amthof 3",
    "Zipcode": "31224",
    "City": "Peine",
    "Phone": "+49 (5171) 700333",
    "Email": "sozialberatung@caritaspeine.de",
    "Latitude": 52.3243529,
    "Longitude": 10.2226048,
    "Title": "Caritasverband für den, Landkreis Peine e.V."
  },
  {
    "ContentID": "be72d87b186546c2841a65fe6e389e87",
    "Street": "Mühlenstraße 12",
    "Zipcode": "77815",
    "City": "Bühl",
    "Phone": "+49 (7223) 939030",
    "Email": "g.lippert@caritas-rastatt.de",
    "Latitude": 48.6956,
    "Longitude": 8.13997,
    "Title": "Caritasverband für den, Landkreis Rastatt e.V."
  },
  {
    "ContentID": "aa2045db0d0e474bbd607983dc70eb4a",
    "Street": "Obernstraße 32",
    "Zipcode": "31655",
    "City": "Stadthagen",
    "Phone": "+49 (5721) 924008",
    "Email": "schwan@caritas-schaumburg.de",
    "Latitude": 52.3220705,
    "Longitude": 9.2053287,
    "Title": "Caritasverband für den, Landkreis Schaumburg e.V."
  },
  {
    "ContentID": "53cddf4d74ec42ca98d139d8730d6595",
    "Street": "Fidelisstraße 1",
    "Zipcode": "72488",
    "City": "Sigmaringen",
    "Phone": "+49 (7571) 73010",
    "Email": "susanne.spasov@caritas-sigmaringen.de",
    "Latitude": 48.08659,
    "Longitude": 9.21605,
    "Title": "Caritasverband für den, Landkreis Sigmaringen e.V."
  },
  {
    "ContentID": "d31f03a741b942ffb2ac11fd40acb8f6",
    "Street": "Waisenhausstraße 1",
    "Zipcode": "82362",
    "City": "Weilheim",
    "Phone": "+49 (881) 9095900",
    "Email": "caritas-wm-sog@t-online.de",
    "Latitude": 47.8341,
    "Longitude": 11.14165,
    "Title": "Caritasverband für den, Landkreis Weilheim-Schongau e.V."
  },
  {
    "ContentID": "a80ab0ca9de7409d869706a3607f747a",
    "Street": "Hettinger Straße 2",
    "Zipcode": "74710",
    "City": "Buchen",
    "Phone": "+49 (6281) 32550",
    "Email": "bezirksstelle.buchen@caritas-nok.de",
    "Latitude": 45.4101245,
    "Longitude": 12.0044819,
    "Title": "Caritasverband für den, Neckar-Odenwaldkreis, Bezirksstelle Buchen"
  },
  {
    "ContentID": "edc121a7e08f4b0a84049db971e69adb",
    "Street": "Markgrafenstraße 17",
    "Zipcode": "68723",
    "City": "Schwetzingen",
    "Phone": "+49 (6202) 931421",
    "Email": "h.hans@caritas-rhein-neckar.de",
    "Latitude": 49.37808,
    "Longitude": 8.57736,
    "Title": "Caritasverband für den, Rhein-Neckar-Kreis e.V., Bezirks- und Kreisgeschäftsstelle"
  },
  {
    "ContentID": "0b3d6f013df9490598e8a64e0e1ae251",
    "Street": "Muthstraße 18",
    "Zipcode": "74889",
    "City": "Sinsheim",
    "Phone": "+49 (7261) 2382",
    "Email": "c.siegle@caritas-rhein-neckar.de",
    "Latitude": 49.246625,
    "Longitude": 8.8948387,
    "Title": "Caritasverband für den, Rhein-Neckar-Kreis e.V., Bezirksstelle Sinsheim"
  },
  {
    "ContentID": "c066cd2349b54d1494a3963924775f75",
    "Street": "Paulstraße 2",
    "Zipcode": "69469",
    "City": "Weinheim",
    "Phone": "+49 (6201) 994613",
    "Email": "c.mendezdevigo@caritas-rhein-neckar.de",
    "Latitude": 49.5559416,
    "Longitude": 8.6707209,
    "Title": "Caritasverband für den, Rhein-Neckar-Kreis e.V., Bezirksstelle Weinheim"
  },
  {
    "ContentID": "7854483fd083422eb71d9ec6675d7dfa",
    "Street": "Am Adenauerplatz 1",
    "Zipcode": "69168",
    "City": "Wiesloch",
    "Phone": "+49 (6222) 8718",
    "Email": "r.koch@caritas-rhein-neckar.de",
    "Latitude": 49.3215905,
    "Longitude": 8.685557,
    "Title": "Caritasverband für den, Rhein-Neckar-Kreis e.V., Bezirksstelle Wiesoch"
  },
  {
    "ContentID": "ab128ade63854efcb3613f687158d48a",
    "Street": "Luisenstraße 10",
    "Zipcode": "79098",
    "City": "Triberg",
    "Phone": "+49 (7722) 3217",
    "Email": "rombach@caritas-sbk.de",
    "Latitude": 47.9938544,
    "Longitude": 7.8467583,
    "Title": "Caritasverband für den, Schwarzwald-Baar-Kreis e.V., Außenstelle"
  },
  {
    "ContentID": "707757dbaf834e1793a5722d898dd050",
    "Street": "Moritz-Werner-Straße 4",
    "Zipcode": "37269",
    "City": "Eschwege",
    "Phone": "+49 (5651) 50018",
    "Email": "caritas.eschwege@caritas-kassel.de",
    "Website": "https://www.rcvkassel.caritas.de",
    "Latitude": 51.1882331,
    "Longitude": 10.0480474,
    "Title": "Caritasverband für den, Werra-Meißner-Kreis e.V."
  },
  {
    "ContentID": "a706d73c8b744b78bd2b81d45f23238c",
    "Street": "Bürgermeister-Heuvemann-Straße 8",
    "Zipcode": "31592",
    "City": "Stolzenau",
    "Phone": "+49 (5761) 908456",
    "Email": "MBloemer@caritas-os.de",
    "Latitude": 52.5116312,
    "Longitude": 9.0602808,
    "Title": "Caritasverband für die Landkreise, Diepholz und Nienburg links der Weser"
  },
  {
    "ContentID": "c726bd942bf046128c36b9656a9ed3c0",
    "Street": "Stellerstraße 22",
    "Zipcode": "27239",
    "City": "Twistringen",
    "Phone": "+49 (4243) 933424",
    "Email": "cwengorz@caritas-os.de",
    "Latitude": 52.80012,
    "Longitude": 8.64268,
    "Title": "Caritasverband für die Landkreise, Diepholz und Nienburg links der Weser"
  },
  {
    "ContentID": "a4573aabfdf947289e9774fb79b48ca8",
    "Street": "Ostertorwall 6",
    "Zipcode": "31785",
    "City": "Hameln",
    "Phone": "+49 (5151) 23950",
    "Email": "caritas.hameln@t-online.de",
    "Latitude": 52.103246,
    "Longitude": 9.3613799,
    "Title": "Caritasverband für die Landkreise, Hameln/Holzminden e.V."
  },
  {
    "ContentID": "877f360aaef4412a993aa7a61da856d9",
    "Street": "Schiffertorstraße 19a",
    "Zipcode": "21682",
    "City": "Stade",
    "Phone": "+49 (4141) 47697",
    "Email": "caritas-stade@t-online.de",
    "Latitude": 53.6030554,
    "Longitude": 9.468054,
    "Title": "Caritasverband für die Landkreise, Stade und Rotenburg/Wümme e.V."
  },
  {
    "ContentID": "82f5dfaa4ef642069c83222e48e22138",
    "Street": "Dieterichstraße 40a",
    "Zipcode": "29525",
    "City": "Uelzen",
    "Phone": "+49 (581) 976550",
    "Email": "geschaeftsstelle@caritas-uelzen.de",
    "Latitude": 52.9828429,
    "Longitude": 10.5961231,
    "Title": "Caritasverband für die Landkreise, Uelzen/Lüchow-Dannenberg e.V."
  },
  {
    "ContentID": "97932770453d4eaf9a688db44e38805b",
    "Street": "Andreaswall 11",
    "Zipcode": "27283",
    "City": "Verden",
    "Phone": "+49 (4231) 5655",
    "Email": "aumann@caritas-verden.de",
    "Latitude": 52.916573,
    "Longitude": 9.2323063,
    "Title": "Caritasverband für die Landkreise, Verden, Soltau-Fallingbostel e.V."
  },
  {
    "ContentID": "a3fd9061f2324aa99b2631ffd5f99dbf",
    "Street": "Wilhelmstraße 8",
    "Zipcode": "36037",
    "City": "Fulda",
    "Phone": "+49 (661) 2428322",
    "Email": "manfred.sauer@caritas-fulda.de",
    "Website": "https://www.rcvfulda.caritas.de",
    "Latitude": 50.5527566,
    "Longitude": 9.6718837,
    "Title": "Caritasverband für die Region Fulda und Geisa e.V."
  },
  {
    "ContentID": "4e3c8ea301a1497ba99bc93f688a5c2a",
    "Street": "Kirchplatz 3",
    "Zipcode": "36088",
    "City": "Hünfeld",
    "Phone": "+49 (6652) 2513",
    "Email": "jutta.michel-neu@caritas-fulda.de",
    "Website": "https://www.rcvfulda.caritas.de",
    "Latitude": 50.67198,
    "Longitude": 9.76588,
    "Title": "Caritasverband für die Region Fulda und Geisa e.V."
  },
  {
    "ContentID": "794886982fa5425eaaab5561d7bc763d",
    "Street": "Pfortengasse 1",
    "Zipcode": "36419",
    "City": "Geisa",
    "Phone": "+49 (36967) 70660",
    "Email": "caritas@geisa.net",
    "Website": "https://www.rcvfulda.caritas.de",
    "Latitude": 50.7166108,
    "Longitude": 9.9505168,
    "Title": "Caritasverband für die Region Fulda und Geisa e.V."
  },
  {
    "ContentID": "c30792e06d584f9186622ece39435928",
    "Street": "Kurfürstenstraße 10-12",
    "Zipcode": "52351",
    "City": "Düren",
    "Phone": "+49 (2421) 4810",
    "Email": "info@caritas-dueren.de",
    "Latitude": 50.79891,
    "Longitude": 6.48894,
    "Title": "Caritasverband für die Region, Düren-Jülich e.V."
  },
  {
    "ContentID": "3c841ed2b8b24155a5498541f4af0a97",
    "Street": "Zankerstraße 1a",
    "Zipcode": "89312",
    "City": "Günzburg",
    "Phone": "+49 (8221) 36760",
    "Email": "info@caritas-guenzburg.de",
    "Latitude": 48.4559652,
    "Longitude": 10.2696573,
    "Title": "Caritasverband für die Region, Günzburg und Neu-Ulm e.V."
  },
  {
    "ContentID": "55770d54ab5d433b956bac4bb769e06c",
    "Street": "Geroldsauer Straße 2",
    "Zipcode": "76530",
    "City": "Baden-Baden",
    "Phone": "+49 (7221) 923940",
    "Email": "csd@caritas-baden-baden.de",
    "Latitude": 48.7349014,
    "Longitude": 8.2544232,
    "Title": "Caritasverband für die Stadt Baden-Baden e.V."
  },
  {
    "ContentID": "64b642c7c4ee420bbf17eccc65b5770c",
    "Street": "Paßstraße 2",
    "Zipcode": "46236",
    "City": "Bottrop",
    "Phone": "+49 (2041) 132070",
    "Email": "martin.schindler@caritas-bottrop.de",
    "Latitude": 51.52205,
    "Longitude": 6.92915,
    "Title": "Caritasverband für die Stadt Bottrop e.V."
  },
  {
    "ContentID": "7e71477fc63547e49e8ab5be4e175c08",
    "Street": "Duissernplatz 15",
    "Zipcode": "47051",
    "City": "Duisburg",
    "Phone": "+49 (203) 295920",
    "Email": "info@caritas-duisburg.de",
    "Latitude": 51.4380409,
    "Longitude": 6.7811425,
    "Title": "Caritasverband für die Stadt Duisburg e.V."
  },
  {
    "ContentID": "efa39f23d5784ebd9ce2f0faf7814207",
    "Street": "Niederstraße 12-16",
    "Zipcode": "45141",
    "City": "Essen",
    "Phone": "+49 (201) 320030",
    "Email": "info@caritas-essen.de",
    "Latitude": 51.4633767,
    "Longitude": 7.0009439,
    "Title": "Caritasverband für die Stadt Essen e.V."
  },
  {
    "ContentID": "608789245ffc404d9b021c3510b06ec5",
    "Street": "Kirchstraße 51",
    "Zipcode": "45789",
    "City": "Gelsenkirchen",
    "Phone": "+49 (209) 1580645",
    "Email": "info@caritasverband-gelsenkirchen.de",
    "Latitude": 51.517744,
    "Longitude": 7.0857172,
    "Title": "Caritasverband für die Stadt Gelsenkirchen e.V."
  },
  {
    "ContentID": "e6ea14e392e24c48aa15a459ff26880d",
    "Street": "Franziskanerstraße 3",
    "Zipcode": "59065",
    "City": "Hamm",
    "Phone": "+49 (2381) 1440",
    "Email": "kwiasowski@caritas-hamm.de",
    "Website": "https://www.caritas-hamm.de",
    "Latitude": 51.683303,
    "Longitude": 7.8220297,
    "Title": "Caritasverband für die Stadt Hamm e.V."
  },
  {
    "ContentID": "d9308e7d7e674b84b1e8db808d181bca",
    "Street": "Franziskanerstraße 3",
    "Zipcode": "59065",
    "City": "Hamm",
    "Phone": "+49 (2381) 1440",
    "Email": "info@caritas-hamm.de",
    "Latitude": 51.683303,
    "Longitude": 7.8220297,
    "Title": "Caritasverband für die Stadt Hamm e.V."
  },
  {
    "ContentID": "7039a79b123b4e15b8b4dec6ef768a34",
    "Street": "Clarenstraße 24",
    "Zipcode": "32052",
    "City": "Herford",
    "Phone": "+49 (5221) 167330",
    "Email": "info-geschaeftsstelle@caritasverband-herford.de",
    "Latitude": 52.11342,
    "Longitude": 8.67044,
    "Title": "Caritasverband für die Stadt und den Kreis Herford e.V."
  },
  {
    "ContentID": "2a401328eecc47339416e4316b8a6a2e",
    "Street": "Treibgasse 26",
    "Zipcode": "63739",
    "City": "Aschaffenburg",
    "Phone": "+49 (6021) 392206",
    "Email": "a.maskow@caritas-aschaffenburg.de",
    "Website": "https://www.caritas-aschaffenburg.de/dienste/sozialberatung.html",
    "Latitude": 49.97714,
    "Longitude": 9.14406,
    "Title": "Caritasverband für die Stadt und den Landkreis Aschaffenburg e.V."
  },
  {
    "ContentID": "2608dad46be943b6a3c75f2702d4ec7d",
    "Street": "Depotstraße 5",
    "Zipcode": "86199",
    "City": "Augsburg",
    "Phone": "+49 (821) 570480",
    "Email": "info@caritas-augsburg-stadt.de",
    "Website": "https://www.der-sozialmarkt.de/",
    "Latitude": 48.3504928,
    "Longitude": 10.8817381,
    "Title": "Caritasverband für die Stadt und den Landkreis Augsburg e. V."
  },
  {
    "ContentID": "a527d41ac15144059689fe82059c3590",
    "Street": "Königstr. 112 - 114",
    "Zipcode": "90762",
    "City": "Fürth",
    "Phone": "+49 (911) 740500",
    "Email": "zentrale@caritas-fuerth.de,franziska.seidl@caritas-fuerth.de,alexia.fischer@mitarbeiten-fuerth.de",
    "Website": "https://www.caritas-fuerth.de",
    "Latitude": 49.4759693,
    "Longitude": 10.99113,
    "Title": "Caritasverband für die Stadt und den Landkreis Fürth e.V."
  },
  {
    "ContentID": "4879e53e5875430e8f99eb6f97c5e52f",
    "Street": "Deutschhöfer Straße 7",
    "Zipcode": "97422",
    "City": "Schweinfurt",
    "Phone": "+49 (9721) 71580",
    "Email": "asbd@caritas-schweinfurt.de",
    "Website": "https://www.caritas-sw.de/asbd/",
    "Latitude": 45.4101245,
    "Longitude": 12.0044819,
    "Title": "Caritasverband für die Stadt und den Landkreis Schweinfurt e.V."
  },
  {
    "ContentID": "68f1d3db61a549e385b908b17dff540b",
    "Street": "Röntgenring 3",
    "Zipcode": "97070",
    "City": "Würzburg",
    "Phone": "+49 (931) 38659121",
    "Email": "asd@caritas-wuerzburg.org",
    "Website": "https://www.caritas-wuerzburg.org/einrichtungen/allgemeiner-sozialdienst/",
    "Latitude": 49.80033,
    "Longitude": 9.93373,
    "Title": "Caritasverband für die Stadt und den Landkreis Würzburg e.V."
  },
  {
    "ContentID": "55d97fda86124aa4a3d868661411455c",
    "Street": "Schützenring 1",
    "Zipcode": "37115",
    "City": "Duderstadt",
    "Phone": "+49 (5527) 98130",
    "Email": "info@caritas-goettingen.de",
    "Latitude": 51.5086141,
    "Longitude": 10.2577836,
    "Title": "Caritasverband für die Stadt, und Landkreis Göttingen e.V."
  },
  {
    "ContentID": "9b92eca139874412a7f0df873385620e",
    "Street": "Lambertusplatz 16",
    "Zipcode": "44575",
    "City": "Castrop-Rauxel",
    "Phone": "+49 (2305) 923550",
    "Email": "mail@caritas-castrop-rauxel.de",
    "Latitude": 51.5484634,
    "Longitude": 7.3107304,
    "Title": "Caritasverband für die Stadt, Castrop-Rauxel e.V."
  },
  {
    "ContentID": "800089789a42408dba4f5e774055924d",
    "Street": "Hingbergstraße 176",
    "Zipcode": "45470",
    "City": "Müllheim an der Ruhr",
    "Phone": "+49 (208) 300080",
    "Email": "info@caritas-muelheim.de",
    "Latitude": 51.4335192,
    "Longitude": 6.9088164,
    "Title": "Caritasverband für die Stadt, Mülheim an der Ruhr e.V."
  },
  {
    "ContentID": "3e07a396ca9b4dc99464584a28571c3c",
    "Street": "Mülheimer Straße 188",
    "Zipcode": "46045",
    "City": "Oberhausen",
    "Phone": "+49 (208) 940400",
    "Email": "info@caritas-oberhausen.de",
    "Latitude": 51.47132,
    "Longitude": 6.86428,
    "Title": "Caritasverband für die Stadt, Oberhausen e.V."
  },
  {
    "ContentID": "b0c4e9485a40487eaed71d64c1de41f0",
    "Street": "Bürgerreuther Straße 9",
    "Zipcode": "95444",
    "City": "Bayreuth",
    "Phone": "+49 (921) 7890217",
    "Email": "info@caritas-bayreuth.de",
    "Latitude": 49.95181,
    "Longitude": 11.57841,
    "Title": "Caritasverband für die Stadt, und den Landkreis Bayreuth e.V."
  },
  {
    "ContentID": "a7cba8680b9a4ac2af4e5ed5326f8815",
    "Street": "Steinweg 55a",
    "Zipcode": "38518",
    "City": "Gifhorn",
    "Phone": "+49 (5371) 98740",
    "Email": "info@caritas-gifhorn.de",
    "Latitude": 52.48436,
    "Longitude": 10.54715,
    "Title": "Caritasverband für die Stadt, und den Landkreis Gifhorn e.V."
  },
  {
    "ContentID": "19811f0cbc214799998b4a0a2e5f6eb8",
    "Street": "Godehardstraße 18",
    "Zipcode": "38081",
    "City": "Göttingen",
    "Phone": "+49 (551) 9995914",
    "Email": "cdg@caritas-goettingen.de",
    "Latitude": 45.4101245,
    "Longitude": 12.0044819,
    "Title": "Caritasverband für die Stadt, und den Landkreis Göttingen e.'V."
  },
  {
    "ContentID": "80dfa7d3988a41c481837831bcb5deca",
    "Street": "Johannisstraße 36",
    "Zipcode": "21335",
    "City": "Lüneburg",
    "Phone": "+49 (4131) 400500",
    "Email": "caritaslueneburg@t-online.de",
    "Latitude": 53.24528,
    "Longitude": 10.41294,
    "Title": "Caritasverband für die Stadt, und den Landkreis Lüneburg e.V."
  },
  {
    "ContentID": "2eb594a3122b46dabc5c667254bcc504",
    "Street": "Kohlbrink 8",
    "Zipcode": "49324",
    "City": "Melle",
    "Phone": "+49 (5422) 9625950",
    "Email": "chaarmann@caritas-os.de",
    "Latitude": 52.2026324,
    "Longitude": 8.336253,
    "Title": "Caritasverband für die Stadt, und den Landkreis Osnabrück e.V."
  },
  {
    "ContentID": "6f58b92da5bb4b509f0f6632c233f5a9",
    "Street": "Bürgermeister-Kreke-Straße 3",
    "Zipcode": "49593",
    "City": "Bersenbrück",
    "Phone": "+49 (5439) 94230",
    "Email": "dwierper@caritas-os.de",
    "Latitude": 52.5544811,
    "Longitude": 7.9470203,
    "Title": "Caritasverband für die Stadt, und den Landkreis Osnabrück e.V."
  },
  {
    "ContentID": "c840a72aa3ef4afe9daf5846986441f2",
    "Street": "Johannisstraße 91",
    "Zipcode": "49074",
    "City": "Osnabrück",
    "Phone": "+49 (541) 341443",
    "Email": "GBuehrs@caritas-os.de",
    "Latitude": 52.2701276,
    "Longitude": 8.0511848,
    "Title": "Caritasverband für die Stadt, und den Landreis Osnabrück e.V."
  },
  {
    "ContentID": "135db539315e4589afdda06b07ab03bf",
    "Street": "Krumme Straße 56",
    "Zipcode": "38300",
    "City": "Wolfenbüttel",
    "Phone": "+49 (5331) 26005",
    "Email": "info@caritas-wolfenbuettel.de",
    "Latitude": 52.159843,
    "Longitude": 10.5364693,
    "Title": "Caritasverband für die Stadt, und Kreis Wolfenbüttel e.V."
  },
  {
    "ContentID": "25fda26c7d6f476eb4b20f84b921c878",
    "Street": "Lindenplan 18",
    "Zipcode": "38640",
    "City": "Goslar",
    "Phone": "+49 (5321) 75810",
    "Email": "mail@caritas-goslar.de",
    "Latitude": 51.9121546,
    "Longitude": 10.4184795,
    "Title": "Caritasverband für die Stadt, und Landkreis Goslar e.V."
  },
  {
    "ContentID": "e3c07ae5bda243408ba43bbd54660247",
    "Street": "Pfaffenstieg 12",
    "Zipcode": "31134",
    "City": "Hildesheim",
    "Phone": "+49 (5121) 16770",
    "Email": "alsb@caritas-hildesheim.de",
    "Latitude": 52.1506718,
    "Longitude": 9.9475183,
    "Title": "Caritasverband für die Stadt, und Landkreis Hildesheim e.V."
  },
  {
    "ContentID": "9427335608b94367b2582b03f13cee26",
    "Street": "Breiter Weg 2",
    "Zipcode": "37154",
    "City": "Northeim",
    "Phone": "+49 (5551) 911770",
    "Email": "Caritasverband-Northeim@t-online.de",
    "Latitude": 51.70576,
    "Longitude": 9.99383,
    "Title": "Caritasverband für die Stadt, und Landkreis Northeim e.V."
  },
  {
    "ContentID": "56e987a9ecd34bd19629b5ea1bb9b513",
    "Street": "Von-der-Tann-Straße 7",
    "Zipcode": "93047",
    "City": "Regensburg",
    "Phone": "+49 (941) 50210",
    "Email": "asb@caritas-regensburg.de",
    "Latitude": 49.0161864,
    "Longitude": 12.1027914,
    "Title": "Caritasverband für die, Diözese Regensburg e.V."
  },
  {
    "ContentID": "6e6b934a8a5e4bb2bd11e53d57806542",
    "Street": "Klosterplatz 1",
    "Zipcode": "53937",
    "City": "Schleiden",
    "Phone": "+49 (2445) 8507123",
    "Email": "a.zens@caritas-eifel.de",
    "Latitude": 50.5287,
    "Longitude": 6.47634,
    "Title": "Caritasverband für die, Region Eifel e.V."
  },
  {
    "ContentID": "2b4b5ad77998459fa8dd7a1605e93ebb",
    "Street": "Freudenberg 9",
    "Zipcode": "87435",
    "City": "Kempten",
    "Phone": "+49 (831) 27051",
    "Email": "asd@caritas-kempten.de",
    "Latitude": 47.72391,
    "Longitude": 10.31645,
    "Title": "Caritasverband für die, Stadt Kempten e.V."
  },
  {
    "ContentID": "da6b8b655b6a4fc6ad5c7aa887ca13f5",
    "Street": "Saldersche Straße 3",
    "Zipcode": "38226",
    "City": "Salzgitter",
    "Phone": "+49 (5341) 189160",
    "Email": "info@caritas-sz.de",
    "Latitude": 52.14823,
    "Longitude": 10.32747,
    "Title": "Caritasverband für die, Stadt Salzgitter e.V."
  },
  {
    "ContentID": "9b96e2b552184623b324840a52f3aa7d",
    "Street": "Bernburger Straße 12",
    "Zipcode": "06108",
    "City": "Halle",
    "Phone": "+49 (345) 5812950",
    "Email": "soziale.dienste@caritasverband-halle.de",
    "Latitude": 51.4946567,
    "Longitude": 11.9658935,
    "Title": "Caritasverband für die, Stadt und das Dekanat Halle e.V."
  },
  {
    "ContentID": "a4dd37bf87474ba2b3ba3bd08ab96bbf",
    "Street": "Greizer Straße 20",
    "Zipcode": "07545",
    "City": "Gera",
    "Phone": "+49 (365) 8212215",
    "Email": "asbberatunggera@caritas-ostthueringen.info",
    "Latitude": 50.874845,
    "Longitude": 12.0861345,
    "Title": "Caritasverband für Ostthüringen e.V."
  },
  {
    "ContentID": "f636440d2b5045cda51bcc418e0f0961",
    "Street": "Kreppstraße 1",
    "Zipcode": "66333",
    "City": "Völklingen",
    "Phone": "+49 (6898) 23016",
    "Email": "beratungszentrum@caritas-vk.de",
    "Latitude": 49.2539031,
    "Longitude": 6.8569,
    "Title": "Caritasverband für Saarbrücken und Umgebung e.V., Beratungszentrum Völklingen (ASD)"
  },
  {
    "ContentID": "4814c7336fea4c579237870ebfc8ba95",
    "Street": "Krusenrotter Weg 37",
    "Zipcode": "24113",
    "City": "Kiel",
    "Phone": "+49 (431) 590220",
    "Email": "schmitz@caritas-sh.de",
    "Latitude": 54.3037,
    "Longitude": 10.12261,
    "Title": "Caritasverband für, Schleswig-Holstein e.V. - Sozialreferat -"
  },
  {
    "ContentID": "61d7690340b04651b8d7648f0e6da78c",
    "Street": "Frankfurter Straße 44",
    "Zipcode": "35392",
    "City": "Gießen",
    "Phone": "+49 (641) 79480",
    "Email": "alb-giessen@caritas-giessen.de",
    "Latitude": 50.57795,
    "Longitude": 8.66483,
    "Title": "Caritasverband Gießen e.V."
  },
  {
    "ContentID": "dd356c1c11c2449397520a20d91b2fe4",
    "Street": "Bahnhofstraße 82a",
    "Zipcode": "36341",
    "City": "Lauterbach",
    "Phone": "+49 (6641) 2816",
    "Email": "alb.lauterbach@caritas-giessen.de",
    "Latitude": 50.6403575,
    "Longitude": 9.4019109,
    "Title": "Caritasverband Gießen e.V., Außenstelle f.d. Vogelsbergkreis"
  },
  {
    "ContentID": "5f0fd210952c409eaa2049e1803f1c34",
    "Street": "Kl. Klostergasse 16",
    "Zipcode": "61169",
    "City": "Friedberg",
    "Phone": "+49 (6031) 5834",
    "Email": "s.kelm@caritas-giessen.de",
    "Latitude": 50.3379423,
    "Longitude": 8.7565124,
    "Title": "Caritasverband Gießen e.V., Außenstelle Friedberg"
  },
  {
    "ContentID": "9e70d7bac56c45e29c59b2f5081f271a",
    "Street": "Kirchstraße 5-7",
    "Zipcode": "45964",
    "City": "Gladbeck",
    "Phone": "+49 (2043) 27910",
    "Email": "info@caritas-gladbeck.de",
    "Latitude": 51.5727661,
    "Longitude": 6.9964697,
    "Title": "Caritasverband Gladbeck e.V."
  },
  {
    "ContentID": "6f85321cab0747b5858040855c8d83b0",
    "Street": "Hochstraße 83a",
    "Zipcode": "58095",
    "City": "Hagen",
    "Phone": "+49 (2331) 91840",
    "Email": "info@caritas-hagen.de",
    "Latitude": 51.3554083,
    "Longitude": 7.4751581,
    "Title": "Caritasverband Hagen e.V."
  },
  {
    "ContentID": "b9674589a7824acdb400259178826eb7",
    "Street": "Leibnizufer 13-15",
    "Zipcode": "30169",
    "City": "Hannover",
    "Phone": "+49 (511) 126000",
    "Email": "info@caritas-hannover.de",
    "Website": "https://www.caritas-hannover.de",
    "Latitude": 52.37296,
    "Longitude": 9.72814,
    "Title": "Caritasverband Hannover e.V."
  },
  {
    "ContentID": "89915cbc8b0843c4826c1eb0f20ac6b3",
    "Street": "Turnerstraße 38",
    "Zipcode": "69126",
    "City": "Heidelberg",
    "Phone": "+49 (6221) 330314",
    "Email": "sb@caritas-heidelberg.de",
    "Latitude": 49.38801,
    "Longitude": 8.68878,
    "Title": "Caritasverband Heidelberg e.V."
  },
  {
    "ContentID": "b7865735d7f2409bb5915e8f731a51a6",
    "Street": "Rathausplatz 17",
    "Zipcode": "79713",
    "City": "Bad Säckingen",
    "Phone": "+49 (7761) 569853",
    "Email": "w.diemer@caritas-hochrhein.de",
    "Latitude": 47.553067,
    "Longitude": 7.950302,
    "Title": "Caritasverband Hochrhein e.V."
  },
  {
    "ContentID": "11d748e8aa134d8b92ebb71fb6bc0884",
    "Street": "Poststraße 1",
    "Zipcode": "79761",
    "City": "Waldshut",
    "Phone": "+49 (7751) 801126",
    "Email": "u.boehler@caritas-hochrhein.de",
    "Latitude": 47.62199,
    "Longitude": 8.21761,
    "Title": "Caritasverband Hochrhein e.V."
  },
  {
    "ContentID": "c1fb1a027f814e89bf62f76bc569c8a0",
    "Street": "Briloner Straße 9",
    "Zipcode": "33142",
    "City": "Büren",
    "Phone": "+49 (2951) 98751",
    "Email": "info@caritas-bueren.de",
    "Latitude": 51.5515639,
    "Longitude": 8.5572761,
    "Title": "Caritasverband im Dekanat Büren e.V."
  },
  {
    "ContentID": "5ac03df4860d46108a5e26531a9a02b8",
    "Street": "Schützenstraße 13",
    "Zipcode": "97877",
    "City": "Wertheim",
    "Phone": "+49 (9341) 922014",
    "Email": "b.martin@caritas-tbb.de",
    "Latitude": 49.75643,
    "Longitude": 9.51313,
    "Title": "Caritasverband im Tauberkreis e.V."
  },
  {
    "ContentID": "4f738ed7e6794481a8ea79a671c05955",
    "Street": "Luisenstraße 5",
    "Zipcode": "97922",
    "City": "Lauda-Königshofen",
    "Phone": "+49 (9343) 627946",
    "Email": "i.kaspar@caritas-tbb.de",
    "Latitude": 49.5473018,
    "Longitude": 9.7313085,
    "Title": "Caritasverband im Tauberkreis e.V."
  },
  {
    "ContentID": "502b6e640c554b8d8334ec75787a72c3",
    "Street": "Schlossplatz 6",
    "Zipcode": "97941",
    "City": "Tauberbischofsheim",
    "Phone": "+49 (9341) 922014",
    "Email": "csd@caritas-tbb.de",
    "Latitude": 49.620887,
    "Longitude": 9.661982,
    "Title": "Caritasverband im Tauberkreis e.V."
  },
  {
    "ContentID": "93eb13e6250e4435ac7333b2fb74f716",
    "Street": "Stockacher Straße 26",
    "Zipcode": "88605",
    "City": "Meßkirch",
    "Phone": "+49 (7575) 925413",
    "Email": "karin.lehmann@caritas-sigmaringen.de",
    "Latitude": 47.99427,
    "Longitude": 9.10653,
    "Title": "Caritasverband im, Landkreis Sigmaringen e.V."
  },
  {
    "ContentID": "591e37238b5143489dbc1044edb0e963",
    "Street": "Sophienstraße 33",
    "Zipcode": "76133",
    "City": "Karlsruhe",
    "Phone": "+49 (721) 912430",
    "Email": "d.finke@caritas-karlsruhe.de,p.frank@caritas-karlsruhe.de,e.grich@caritas-karlsruhe.de,c.kern@caritas-karlsruhe.de,m.beha@caritas-karlsruhe.de",
    "Website": "https://www.caritas-karlsruhe.de/hilfen-und-beratung/hilfen-in-notlagen/caritassozialdienst",
    "Latitude": 49.0067031,
    "Longitude": 8.3917386,
    "Title": "Caritasverband Karlsruhe e.V."
  },
  {
    "ContentID": "1528851bd178441594e5a001b7d16f26",
    "Street": "Hirschzeller Straße 8",
    "Zipcode": "87600",
    "City": "Kaufbeuren",
    "Phone": "+49 (8341) 909240",
    "Email": "kcv-kaufbeuren@caritas-augsburg.de",
    "Latitude": 47.88143,
    "Longitude": 10.63007,
    "Title": "Caritasverband Kaufbeuren e.V."
  },
  {
    "ContentID": "0661dda5316640bb989d3f9b4b988742",
    "Street": "Hauptstraße 60",
    "Zipcode": "77694",
    "City": "Kehl",
    "Phone": "+49 (7851) 2148",
    "Email": "CaritasKehl@t-online.de",
    "Latitude": 48.5731677,
    "Longitude": 7.8121625,
    "Title": "Caritasverband Kehl-Hanauerland e.V."
  },
  {
    "ContentID": "c126cc21cb494814998451023afd3631",
    "Street": "Pfarrhofgasse 1",
    "Zipcode": "93309",
    "City": "Kelheim",
    "Phone": "+49 (9441) 50070",
    "Email": "h.kuffer@caritas-kelheim.de",
    "Latitude": 48.9188742,
    "Longitude": 11.8739272,
    "Title": "Caritasverband Kelheim e.V."
  },
  {
    "ContentID": "b75f2639b4d642688d7df3f0e4f868d3",
    "Street": "Sandhaasstr. 4",
    "Zipcode": "77716",
    "City": "Haslach im Kinzigtal",
    "Phone": "+49 (7832) 99955 200",
    "Email": "constanze.blank@caritas-kinzigtal.de",
    "Latitude": 48.2759825,
    "Longitude": 8.0893661,
    "Title": "Caritasverband Kinzigtal e.V."
  },
  {
    "ContentID": "b7f9e72961b040f289731b1b661e1098",
    "Street": "Hohenzollernstraße 118-120",
    "Zipcode": "56068",
    "City": "Koblenz",
    "Phone": "+49 (261) 139060",
    "Email": "info@caritas-koblenz.de",
    "Latitude": 50.34487,
    "Longitude": 7.58834,
    "Title": "Caritasverband Koblenz e.V., Allgemeiner Sozialer Dienst"
  },
  {
    "ContentID": "3298699b466946af9a40299b84014b88",
    "Street": "Bartholomäus-Schink-Str. 6",
    "Zipcode": "50825",
    "City": "Köln",
    "Phone": "+49 (221) 955700",
    "Email": "Allgemeine-Sozialberatung@caritas-koeln.de",
    "Latitude": 50.9520654,
    "Longitude": 6.9167726,
    "Title": "Caritasverband Köln"
  },
  {
    "ContentID": "a9482a05f33f41efb3c433c06a11a699",
    "Street": "Uhlandstraße 15",
    "Zipcode": "78464",
    "City": "Konstanz",
    "Phone": "+49 (7531) 1200235",
    "Email": "sutter@caritas-kn.de",
    "Latitude": 47.67816,
    "Longitude": 9.1876,
    "Title": "Caritasverband Konstanz e.V."
  },
  {
    "ContentID": "83b9329b4b504eccb76f9a01b07765a9",
    "Street": "Inselgasse 7",
    "Zipcode": "78464",
    "City": "Konstanz",
    "Phone": "+49 (7531) 2827760",
    "Email": "sutter@caritas-kn.de",
    "Latitude": 47.6645497,
    "Longitude": 9.1761797,
    "Title": "Caritasverband Konstanz e.V."
  },
  {
    "ContentID": "0edd197b47724a878476e39f88dc0a4d",
    "Street": "Kaiserstraße 85",
    "Zipcode": "77933",
    "City": "Lahr",
    "Phone": "+49 (7821) 90660",
    "Email": "csd@caritas-lahr.de",
    "Latitude": 48.34168,
    "Longitude": 7.86767,
    "Title": "Caritasverband Lahr e.V."
  },
  {
    "ContentID": "d906c528224b47d7a947a6ab71e32681",
    "Street": "Freyung 619",
    "Zipcode": "84028",
    "City": "Landshut",
    "Phone": "+49 (871) 805100",
    "Email": "ingrid.lobmeier@caritas-landshut.de",
    "Latitude": 48.5353089,
    "Longitude": 12.1560759,
    "Title": "Caritasverband Landshut e.V."
  },
  {
    "ContentID": "c545a100ab8a4051a5ef6e9d6fcb37fd",
    "Street": "Elsterstraße 15",
    "Zipcode": "04109",
    "City": "Leipzig",
    "Phone": "+49 (341) 9636120",
    "Email": "info@caritas-leipzig.de",
    "Latitude": 51.339184,
    "Longitude": 12.3662149,
    "Title": "Caritasverband Leipzig e.V."
  },
  {
    "ContentID": "8fdd3da2a80e4a8a9c4a2e842a47271c",
    "Street": "Jahnstraße 3",
    "Zipcode": "88662",
    "City": "Überlingen",
    "Phone": "+49 (7551) 83030",
    "Email": "monika.weishaupt@caritas-linzgau.de",
    "Latitude": 47.7640223,
    "Longitude": 9.1663459,
    "Title": "Caritasverband Linzgau e.V."
  },
  {
    "ContentID": "c955c72b0a1648be9b623ca2768255c2",
    "Street": "Fegefeuer 2",
    "Zipcode": "23552",
    "City": "Lübeck",
    "Phone": "+49 (451) 7994621",
    "Email": "caritasverband-luebeck@t-online.de",
    "Latitude": 53.862423,
    "Longitude": 10.686849,
    "Title": "Caritasverband Lübeck e.V."
  },
  {
    "ContentID": "232d63c9e1554c9ead5d5b347b2c7be1",
    "Street": "Aspeltstraße 10",
    "Zipcode": "55118",
    "City": "Mainz",
    "Phone": "+49 (6131) 9083256",
    "Email": "c.bollwin@caritas-mz.de",
    "Latitude": 50.0048,
    "Longitude": 8.2577,
    "Title": "Caritasverband Mainz e.V., Caritaszentrum Delbrel"
  },
  {
    "ContentID": "2ae702d2767f48d6b18ae9d386d8c1a4",
    "Street": "Rochusstraße 8",
    "Zipcode": "55411",
    "City": "Bingen",
    "Phone": "+49 (6721) 91770",
    "Email": "alb@caritas-bingen.de",
    "Latitude": 49.9676182,
    "Longitude": 7.8990962,
    "Title": "Caritasverband Mainz e.V., Caritaszentrum St. Elisabeth"
  },
  {
    "ContentID": "4b30753b826348af9c05ffa9331294c7",
    "Street": "Marie-Bernay-Platz 13",
    "Zipcode": "68309",
    "City": "Mannheim",
    "Phone": "+49 (621) 7273848",
    "Email": "jugendintegration@caritas-mannheim.de",
    "Latitude": 49.5050119,
    "Longitude": 8.527238,
    "Title": "Caritasverband Mannheim e.V., Caritassozial- und Migrationsdienst"
  },
  {
    "ContentID": "59c18fc537ab4bdd83e25fad3aae46e5",
    "Street": "B 5, 19a",
    "Zipcode": "68159",
    "City": "Mannheim",
    "Phone": "+49 (621) 1260218",
    "Email": "csd-md@caritas.mannheim.de",
    "Latitude": 49.487081,
    "Longitude": 8.4598205,
    "Title": "Caritasverband Mannheim e.V., Caritassozial- und Migrationsdienst"
  },
  {
    "ContentID": "9b10f6cddec9415bae5a32a9118c76c6",
    "Street": "Heilsberger Straße 11",
    "Zipcode": "68307",
    "City": "Mannheim",
    "Phone": "+49 (621) 775560",
    "Email": "kind-und-kegel@caritas-mannheim.de",
    "Latitude": 49.5493037,
    "Longitude": 8.4696076,
    "Title": "Caritasverband Mannheim e.V., Caritassozial- und Migrationsdienst"
  },